{
    "attribution": {
        "text": "See data/transit/NOTICE.md for attribution and license details."
    },
    "presets": [
        {
            "id": "osm-japan-chugoku-other",
            "label": "Other stations in japan-chugoku",
            "operator": "OpenStreetMap",
            "bbox": [130.8796162, 33.3669866, 134.4441605, 35.6195566],
            "defaultColor": "#1f6f78",
            "routes": [],
            "stations": [
                {
                    "id": "osm:node:265003251",
                    "lat": 34.3551109,
                    "lon": 134.1335827,
                    "mergeKey": "osm:node:265003251",
                    "name": "八栗登山口",
                    "routeIds": [],
                    "sourceId": "osm:node:265003251"
                },
                {
                    "id": "osm:node:265003261",
                    "lat": 34.3580678,
                    "lon": 134.1397846,
                    "mergeKey": "osm:node:265003261",
                    "name": "八栗山上",
                    "routeIds": [],
                    "sourceId": "osm:node:265003261"
                },
                {
                    "id": "osm:node:265020404",
                    "lat": 33.4460634,
                    "lon": 133.9657079,
                    "mergeKey": "osm:node:265020404",
                    "name": "唐浜",
                    "nameEn": "Tōnohama",
                    "routeIds": [],
                    "sourceId": "osm:node:265020404"
                },
                {
                    "id": "osm:node:265020421",
                    "lat": 33.4250589,
                    "lon": 134.0181116,
                    "mergeKey": "osm:node:265020421",
                    "name": "奈半利",
                    "nameEn": "Nahari",
                    "routeIds": [],
                    "sourceId": "osm:node:265020421"
                },
                {
                    "id": "osm:node:265020423",
                    "lat": 33.4433864,
                    "lon": 133.9841267,
                    "mergeKey": "osm:node:265020423",
                    "name": "安田",
                    "nameEn": "Yasuda",
                    "routeIds": [],
                    "sourceId": "osm:node:265020423"
                },
                {
                    "id": "osm:node:265020465",
                    "lat": 33.4302838,
                    "lon": 134.0081722,
                    "mergeKey": "osm:node:265020465",
                    "name": "田野",
                    "nameEn": "Tano",
                    "routeIds": [],
                    "sourceId": "osm:node:265020465"
                },
                {
                    "id": "osm:node:265020572",
                    "lat": 33.5344491,
                    "lon": 133.7542596,
                    "mergeKey": "osm:node:265020572",
                    "name": "夜須",
                    "nameEn": "Yasu",
                    "routeIds": [],
                    "sourceId": "osm:node:265020572"
                },
                {
                    "id": "osm:node:265020573",
                    "lat": 33.5061809,
                    "lon": 133.8639131,
                    "mergeKey": "osm:node:265020573",
                    "name": "穴内",
                    "nameEn": "Ananai",
                    "routeIds": [],
                    "sourceId": "osm:node:265020573"
                },
                {
                    "id": "osm:node:265020583",
                    "lat": 33.5707451,
                    "lon": 133.6705406,
                    "mergeKey": "osm:node:265020583",
                    "name": "立田",
                    "nameEn": "Tateda",
                    "routeIds": [],
                    "sourceId": "osm:node:265020583"
                },
                {
                    "id": "osm:node:265020708",
                    "lat": 33.5046582,
                    "lon": 133.9064534,
                    "mergeKey": "osm:node:265020708",
                    "name": "安芸",
                    "nameEn": "Aki",
                    "routeIds": [],
                    "sourceId": "osm:node:265020708"
                },
                {
                    "id": "osm:node:265020711",
                    "lat": 33.5178986,
                    "lon": 133.8092126,
                    "mergeKey": "osm:node:265020711",
                    "name": "和食",
                    "nameEn": "Wajiki",
                    "routeIds": [],
                    "sourceId": "osm:node:265020711"
                },
                {
                    "id": "osm:node:265020714",
                    "lat": 33.5745988,
                    "lon": 133.6514074,
                    "mergeKey": "osm:node:265020714",
                    "name": "後免町",
                    "nameEn": "Gomenmachi",
                    "routeIds": [],
                    "sourceId": "osm:node:265020714"
                },
                {
                    "id": "osm:node:265020809",
                    "lat": 33.5160147,
                    "lon": 133.825034,
                    "mergeKey": "osm:node:265020809",
                    "name": "赤野",
                    "nameEn": "Akano",
                    "routeIds": [],
                    "sourceId": "osm:node:265020809"
                },
                {
                    "id": "osm:node:265020811",
                    "lat": 33.5177184,
                    "lon": 133.790302,
                    "mergeKey": "osm:node:265020811",
                    "name": "西分",
                    "nameEn": "Nishibun",
                    "routeIds": [],
                    "sourceId": "osm:node:265020811"
                },
                {
                    "id": "osm:node:265020826",
                    "lat": 33.4909458,
                    "lon": 133.929092,
                    "mergeKey": "osm:node:265020826",
                    "name": "伊尾木",
                    "nameEn": "Ioki",
                    "routeIds": [],
                    "sourceId": "osm:node:265020826"
                },
                {
                    "id": "osm:node:265020971",
                    "lat": 33.5026276,
                    "lon": 133.8912761,
                    "mergeKey": "osm:node:265020971",
                    "name": "球場前",
                    "nameEn": "Kyūjōmae",
                    "routeIds": [],
                    "sourceId": "osm:node:265020971"
                },
                {
                    "id": "osm:node:265021149",
                    "lat": 33.5619089,
                    "lon": 133.6979873,
                    "mergeKey": "osm:node:265021149",
                    "name": "のいち",
                    "nameEn": "Noichi",
                    "routeIds": [],
                    "sourceId": "osm:node:265021149"
                },
                {
                    "id": "osm:node:265021209",
                    "lat": 33.4582931,
                    "lon": 133.9481018,
                    "mergeKey": "osm:node:265021209",
                    "name": "下山",
                    "nameEn": "Shimoyama",
                    "routeIds": [],
                    "sourceId": "osm:node:265021209"
                },
                {
                    "id": "osm:node:265021250",
                    "lat": 33.5398659,
                    "lon": 133.7221029,
                    "mergeKey": "osm:node:265021250",
                    "name": "あかおか",
                    "nameEn": "Akaoka",
                    "routeIds": [],
                    "sourceId": "osm:node:265021250"
                },
                {
                    "id": "osm:node:265021294",
                    "lat": 33.5461153,
                    "lon": 133.7101274,
                    "mergeKey": "osm:node:265021294",
                    "name": "よしかわ",
                    "nameEn": "Yoshikawa",
                    "routeIds": [],
                    "sourceId": "osm:node:265021294"
                },
                {
                    "id": "osm:node:265021295",
                    "lat": 33.5393136,
                    "lon": 133.7374319,
                    "mergeKey": "osm:node:265021295",
                    "name": "香我美",
                    "nameEn": "Kagami",
                    "routeIds": [],
                    "sourceId": "osm:node:265021295"
                },
                {
                    "id": "osm:node:265967311",
                    "lat": 35.5094493,
                    "lon": 134.0507709,
                    "mergeKey": "osm:node:265967311",
                    "name": "浜村",
                    "nameEn": "Hamamura",
                    "routeIds": [],
                    "sourceId": "osm:node:265967311"
                },
                {
                    "id": "osm:node:265967497",
                    "lat": 35.5453668,
                    "lon": 134.2875606,
                    "mergeKey": "osm:node:265967497",
                    "name": "福部",
                    "nameEn": "Fukube",
                    "routeIds": [],
                    "sourceId": "osm:node:265967497"
                },
                {
                    "id": "osm:node:265967530",
                    "lat": 35.5093299,
                    "lon": 133.9364151,
                    "mergeKey": "osm:node:265967530",
                    "name": "泊",
                    "nameEn": "Tomari",
                    "routeIds": [],
                    "sourceId": "osm:node:265967530"
                },
                {
                    "id": "osm:node:265967534",
                    "lat": 35.5996524,
                    "lon": 134.3626707,
                    "mergeKey": "osm:node:265967534",
                    "name": "東浜",
                    "nameEn": "Higashihama",
                    "routeIds": [],
                    "sourceId": "osm:node:265967534"
                },
                {
                    "id": "osm:node:265967740",
                    "lat": 35.5140421,
                    "lon": 134.0822813,
                    "mergeKey": "osm:node:265967740",
                    "name": "宝木",
                    "nameEn": "Hōgi",
                    "routeIds": [],
                    "sourceId": "osm:node:265967740"
                },
                {
                    "id": "osm:node:265967742",
                    "lat": 35.5240896,
                    "lon": 134.1361024,
                    "mergeKey": "osm:node:265967742",
                    "name": "末恒",
                    "nameEn": "Suetsune",
                    "routeIds": [],
                    "sourceId": "osm:node:265967742"
                },
                {
                    "id": "osm:node:265967803",
                    "lat": 35.6195566,
                    "lon": 134.4343476,
                    "mergeKey": "osm:node:265967803",
                    "name": "諸寄",
                    "nameEn": "Moroyose",
                    "routeIds": [],
                    "sourceId": "osm:node:265967803"
                },
                {
                    "id": "osm:node:265968081",
                    "lat": 35.5160847,
                    "lon": 133.9957574,
                    "mergeKey": "osm:node:265968081",
                    "name": "青谷",
                    "nameEn": "Aoya",
                    "routeIds": [],
                    "sourceId": "osm:node:265968081"
                },
                {
                    "id": "osm:node:265968236",
                    "lat": 35.5135786,
                    "lon": 134.1861452,
                    "mergeKey": "osm:node:265968236",
                    "name": "湖山",
                    "nameEn": "Koyama",
                    "routeIds": [],
                    "sourceId": "osm:node:265968236"
                },
                {
                    "id": "osm:node:265968790",
                    "lat": 35.5123671,
                    "lon": 133.6346038,
                    "mergeKey": "osm:node:265968790",
                    "name": "赤碕",
                    "nameEn": "Akasaki",
                    "routeIds": [],
                    "sourceId": "osm:node:265968790"
                },
                {
                    "id": "osm:node:265968978",
                    "lat": 35.5669231,
                    "lon": 134.3084831,
                    "mergeKey": "osm:node:265968978",
                    "name": "大岩",
                    "nameEn": "Ōiwa",
                    "routeIds": [],
                    "sourceId": "osm:node:265968978"
                },
                {
                    "id": "osm:node:265969026",
                    "lat": 35.6068993,
                    "lon": 134.3935415,
                    "mergeKey": "osm:node:265969026",
                    "name": "居組",
                    "nameEn": "Igumi",
                    "routeIds": [],
                    "sourceId": "osm:node:265969026"
                },
                {
                    "id": "osm:node:265969686",
                    "lat": 35.4569568,
                    "lon": 133.4297461,
                    "mergeKey": "osm:node:265969686",
                    "name": "淀江",
                    "nameEn": "Yodoe",
                    "routeIds": [],
                    "sourceId": "osm:node:265969686"
                },
                {
                    "id": "osm:node:265969759",
                    "lat": 35.5031458,
                    "lon": 133.6734517,
                    "mergeKey": "osm:node:265969759",
                    "name": "八橋",
                    "nameEn": "Yabase",
                    "routeIds": [],
                    "sourceId": "osm:node:265969759"
                },
                {
                    "id": "osm:node:265969834",
                    "lat": 35.4687232,
                    "lon": 133.9020574,
                    "mergeKey": "osm:node:265969834",
                    "name": "松崎",
                    "nameEn": "Matsuzaki",
                    "routeIds": [],
                    "sourceId": "osm:node:265969834"
                },
                {
                    "id": "osm:node:265969837",
                    "lat": 35.4820266,
                    "lon": 133.8087031,
                    "mergeKey": "osm:node:265969837",
                    "name": "下北条",
                    "nameEn": "Shimohōjō",
                    "routeIds": [],
                    "sourceId": "osm:node:265969837"
                },
                {
                    "id": "osm:node:265970068",
                    "lat": 35.4849974,
                    "lon": 133.4567678,
                    "mergeKey": "osm:node:265970068",
                    "name": "大山口",
                    "nameEn": "Daisenguchi",
                    "routeIds": [],
                    "sourceId": "osm:node:265970068"
                },
                {
                    "id": "osm:node:265970070",
                    "lat": 35.5187494,
                    "lon": 133.5662895,
                    "mergeKey": "osm:node:265970070",
                    "name": "下市",
                    "nameEn": "Shimoichi",
                    "routeIds": [],
                    "sourceId": "osm:node:265970070"
                },
                {
                    "id": "osm:node:265970072",
                    "lat": 35.5074264,
                    "lon": 133.4918969,
                    "mergeKey": "osm:node:265970072",
                    "name": "名和",
                    "nameEn": "Nawa",
                    "routeIds": [],
                    "sourceId": "osm:node:265970072"
                },
                {
                    "id": "osm:node:265970074",
                    "lat": 35.4996863,
                    "lon": 133.6933811,
                    "mergeKey": "osm:node:265970074",
                    "name": "浦安",
                    "nameEn": "Urayasu",
                    "routeIds": [],
                    "sourceId": "osm:node:265970074"
                },
                {
                    "id": "osm:node:265970075",
                    "lat": 35.5207061,
                    "lon": 133.5902338,
                    "mergeKey": "osm:node:265970075",
                    "name": "中山口",
                    "nameEn": "Nakayamaguchi",
                    "routeIds": [],
                    "sourceId": "osm:node:265970075"
                },
                {
                    "id": "osm:node:265970097",
                    "lat": 35.490244,
                    "lon": 133.7544842,
                    "mergeKey": "osm:node:265970097",
                    "name": "由良",
                    "nameEn": "Yura",
                    "routeIds": [],
                    "sourceId": "osm:node:265970097"
                },
                {
                    "id": "osm:node:265970099",
                    "lat": 35.4308297,
                    "lon": 133.3516092,
                    "mergeKey": "osm:node:265970099",
                    "name": "東山公園",
                    "nameEn": "Higashiyamakōen",
                    "routeIds": [],
                    "sourceId": "osm:node:265970099"
                },
                {
                    "id": "osm:node:265970164",
                    "lat": 35.5121754,
                    "lon": 133.5029816,
                    "mergeKey": "osm:node:265970164",
                    "name": "御来屋",
                    "nameEn": "Mikuriya",
                    "routeIds": [],
                    "sourceId": "osm:node:265970164"
                },
                {
                    "id": "osm:node:265970277",
                    "lat": 35.3249535,
                    "lon": 132.7020052,
                    "mergeKey": "osm:node:265970277",
                    "name": "出雲神西",
                    "nameEn": "Izumo-Jinzai",
                    "routeIds": [],
                    "sourceId": "osm:node:265970277"
                },
                {
                    "id": "osm:node:265970368",
                    "lat": 35.4459064,
                    "lon": 133.0485881,
                    "mergeKey": "osm:node:265970368",
                    "name": "乃木",
                    "nameEn": "Nogi",
                    "routeIds": [],
                    "sourceId": "osm:node:265970368"
                },
                {
                    "id": "osm:node:265970986",
                    "lat": 35.3152617,
                    "lon": 132.6832073,
                    "mergeKey": "osm:node:265970986",
                    "name": "江南",
                    "nameEn": "Kōnan",
                    "routeIds": [],
                    "sourceId": "osm:node:265970986"
                },
                {
                    "id": "osm:node:265971146",
                    "lat": 35.2845919,
                    "lon": 132.6301142,
                    "mergeKey": "osm:node:265971146",
                    "name": "小田",
                    "nameEn": "Oda",
                    "routeIds": [],
                    "sourceId": "osm:node:265971146"
                },
                {
                    "id": "osm:node:265971350",
                    "lat": 35.4317977,
                    "lon": 133.2073805,
                    "mergeKey": "osm:node:265971350",
                    "name": "荒島",
                    "nameEn": "Arashima",
                    "routeIds": [],
                    "sourceId": "osm:node:265971350"
                },
                {
                    "id": "osm:node:265971426",
                    "lat": 35.4206764,
                    "lon": 132.9517228,
                    "mergeKey": "osm:node:265971426",
                    "name": "来待",
                    "nameEn": "Kimachi",
                    "routeIds": [],
                    "sourceId": "osm:node:265971426"
                },
                {
                    "id": "osm:node:265971516",
                    "lat": 35.445491,
                    "lon": 133.128456,
                    "mergeKey": "osm:node:265971516",
                    "name": "東松江",
                    "nameEn": "Higashi-Matsue",
                    "routeIds": [],
                    "sourceId": "osm:node:265971516"
                },
                {
                    "id": "osm:node:265971759",
                    "lat": 35.2751757,
                    "lon": 132.5897571,
                    "mergeKey": "osm:node:265971759",
                    "name": "田儀",
                    "nameEn": "Tagi",
                    "routeIds": [],
                    "sourceId": "osm:node:265971759"
                },
                {
                    "id": "osm:node:265971856",
                    "lat": 35.3836887,
                    "lon": 132.8076789,
                    "mergeKey": "osm:node:265971856",
                    "name": "直江",
                    "nameEn": "Naoe",
                    "routeIds": [],
                    "sourceId": "osm:node:265971856"
                },
                {
                    "id": "osm:node:265972058",
                    "lat": 35.0565276,
                    "lon": 132.3133153,
                    "mergeKey": "osm:node:265972058",
                    "name": "黒松",
                    "nameEn": "Kuromatsu",
                    "routeIds": [],
                    "sourceId": "osm:node:265972058"
                },
                {
                    "id": "osm:node:265995256",
                    "lat": 35.4279397,
                    "lon": 133.1494152,
                    "mergeKey": "osm:node:265995256",
                    "name": "揖屋",
                    "nameEn": "Iya",
                    "routeIds": [],
                    "sourceId": "osm:node:265995256"
                },
                {
                    "id": "osm:node:265995650",
                    "lat": 35.2401325,
                    "lon": 132.5260182,
                    "mergeKey": "osm:node:265995650",
                    "name": "波根",
                    "nameEn": "Hane",
                    "routeIds": [],
                    "sourceId": "osm:node:265995650"
                },
                {
                    "id": "osm:node:265996520",
                    "lat": 35.2294547,
                    "lon": 132.5082435,
                    "mergeKey": "osm:node:265996520",
                    "name": "久手",
                    "nameEn": "Kute",
                    "routeIds": [],
                    "sourceId": "osm:node:265996520"
                },
                {
                    "id": "osm:node:265996531",
                    "lat": 35.1510621,
                    "lon": 132.4035483,
                    "mergeKey": "osm:node:265996531",
                    "name": "仁万",
                    "nameEn": "Nima",
                    "routeIds": [],
                    "sourceId": "osm:node:265996531"
                },
                {
                    "id": "osm:node:265996543",
                    "lat": 35.1926455,
                    "lon": 132.4401876,
                    "mergeKey": "osm:node:265996543",
                    "name": "五十猛",
                    "nameEn": "Isotake",
                    "routeIds": [],
                    "sourceId": "osm:node:265996543"
                },
                {
                    "id": "osm:node:265996760",
                    "lat": 34.7227048,
                    "lon": 131.8647786,
                    "mergeKey": "osm:node:265996760",
                    "name": "石見津田",
                    "nameEn": "Iwami-Tsuda",
                    "routeIds": [],
                    "sourceId": "osm:node:265996760"
                },
                {
                    "id": "osm:node:265996923",
                    "lat": 34.7718592,
                    "lon": 131.9126844,
                    "mergeKey": "osm:node:265996923",
                    "name": "岡見",
                    "nameEn": "Okami",
                    "routeIds": [],
                    "sourceId": "osm:node:265996923"
                },
                {
                    "id": "osm:node:265997159",
                    "lat": 34.8583757,
                    "lon": 132.0174234,
                    "mergeKey": "osm:node:265997159",
                    "name": "周布",
                    "nameEn": "Sufu",
                    "routeIds": [],
                    "sourceId": "osm:node:265997159"
                },
                {
                    "id": "osm:node:266026234",
                    "lat": 35.0370219,
                    "lon": 132.2748845,
                    "mergeKey": "osm:node:266026234",
                    "name": "浅利",
                    "nameEn": "Asari",
                    "routeIds": [],
                    "sourceId": "osm:node:266026234"
                },
                {
                    "id": "osm:node:266026376",
                    "lat": 34.9496285,
                    "lon": 132.1392853,
                    "mergeKey": "osm:node:266026376",
                    "name": "久代",
                    "nameEn": "Kushiro",
                    "routeIds": [],
                    "sourceId": "osm:node:266026376"
                },
                {
                    "id": "osm:node:266026708",
                    "lat": 35.1954073,
                    "lon": 132.4680319,
                    "mergeKey": "osm:node:266026708",
                    "name": "静間",
                    "nameEn": "Shizuma",
                    "routeIds": [],
                    "sourceId": "osm:node:266026708"
                },
                {
                    "id": "osm:node:266027365",
                    "lat": 34.8264137,
                    "lon": 131.9868236,
                    "mergeKey": "osm:node:266027365",
                    "name": "折居",
                    "nameEn": "Orii",
                    "routeIds": [],
                    "sourceId": "osm:node:266027365"
                },
                {
                    "id": "osm:node:266027372",
                    "lat": 35.0766789,
                    "lon": 132.3291448,
                    "mergeKey": "osm:node:266027372",
                    "name": "石見福光",
                    "nameEn": "Iwami-Fukumitsu",
                    "routeIds": [],
                    "sourceId": "osm:node:266027372"
                },
                {
                    "id": "osm:node:266027386",
                    "lat": 34.6731016,
                    "lon": 131.7383649,
                    "mergeKey": "osm:node:266027386",
                    "name": "戸田小浜",
                    "nameEn": "Todakohama",
                    "routeIds": [],
                    "sourceId": "osm:node:266027386"
                },
                {
                    "id": "osm:node:266027978",
                    "lat": 34.7517803,
                    "lon": 131.8784934,
                    "mergeKey": "osm:node:266027978",
                    "name": "鎌手",
                    "nameEn": "Kamate",
                    "routeIds": [],
                    "sourceId": "osm:node:266027978"
                },
                {
                    "id": "osm:node:266029164",
                    "lat": 34.397333,
                    "lon": 131.3301857,
                    "mergeKey": "osm:node:266029164",
                    "name": "三見",
                    "nameEn": "Sammi",
                    "routeIds": [],
                    "sourceId": "osm:node:266029164"
                },
                {
                    "id": "osm:node:266029589",
                    "lat": 34.4054441,
                    "lon": 131.3795987,
                    "mergeKey": "osm:node:266029589",
                    "name": "玉江",
                    "nameEn": "Tamae",
                    "routeIds": [],
                    "sourceId": "osm:node:266029589"
                },
                {
                    "id": "osm:node:266029757",
                    "lat": 34.9896909,
                    "lon": 132.1875155,
                    "mergeKey": "osm:node:266029757",
                    "name": "都野津",
                    "nameEn": "Tsunozu",
                    "routeIds": [],
                    "sourceId": "osm:node:266029757"
                },
                {
                    "id": "osm:node:266029815",
                    "lat": 35.1064397,
                    "lon": 132.3755506,
                    "mergeKey": "osm:node:266029815",
                    "name": "湯里",
                    "nameEn": "Yusato",
                    "routeIds": [],
                    "sourceId": "osm:node:266029815"
                },
                {
                    "id": "osm:node:266029820",
                    "lat": 35.1285664,
                    "lon": 132.3881677,
                    "mergeKey": "osm:node:266029820",
                    "name": "馬路",
                    "nameEn": "Maji",
                    "routeIds": [],
                    "sourceId": "osm:node:266029820"
                },
                {
                    "id": "osm:node:266031106",
                    "lat": 34.5720788,
                    "lon": 131.5489583,
                    "mergeKey": "osm:node:266031106",
                    "name": "宇田郷",
                    "nameEn": "Utagō",
                    "routeIds": [],
                    "sourceId": "osm:node:266031106"
                },
                {
                    "id": "osm:node:266031200",
                    "lat": 34.5326328,
                    "lon": 131.5030678,
                    "mergeKey": "osm:node:266031200",
                    "name": "木与",
                    "nameEn": "Kiyo",
                    "routeIds": [],
                    "sourceId": "osm:node:266031200"
                },
                {
                    "id": "osm:node:266031564",
                    "lat": 34.6688193,
                    "lon": 131.7021649,
                    "mergeKey": "osm:node:266031564",
                    "name": "飯浦",
                    "nameEn": "Iinoura",
                    "routeIds": [],
                    "sourceId": "osm:node:266031564"
                },
                {
                    "id": "osm:node:266031791",
                    "lat": 34.5028228,
                    "lon": 131.4724664,
                    "mergeKey": "osm:node:266031791",
                    "name": "奈古",
                    "nameEn": "Nago",
                    "routeIds": [],
                    "sourceId": "osm:node:266031791"
                },
                {
                    "id": "osm:node:266031885",
                    "lat": 34.438941,
                    "lon": 131.422519,
                    "mergeKey": "osm:node:266031885",
                    "name": "越ヶ浜",
                    "nameEn": "Koshigahama",
                    "routeIds": [],
                    "sourceId": "osm:node:266031885"
                },
                {
                    "id": "osm:node:266031887",
                    "lat": 34.6218519,
                    "lon": 131.6054511,
                    "mergeKey": "osm:node:266031887",
                    "name": "須佐",
                    "nameEn": "Susa",
                    "routeIds": [],
                    "sourceId": "osm:node:266031887"
                },
                {
                    "id": "osm:node:266032222",
                    "lat": 34.4169951,
                    "lon": 131.4105197,
                    "mergeKey": "osm:node:266032222",
                    "name": "東萩",
                    "nameEn": "Higashi-Hagi",
                    "routeIds": [],
                    "sourceId": "osm:node:266032222"
                },
                {
                    "id": "osm:node:266032224",
                    "lat": 34.3791578,
                    "lon": 131.2950367,
                    "mergeKey": "osm:node:266032224",
                    "name": "飯井",
                    "nameEn": "Ii",
                    "routeIds": [],
                    "sourceId": "osm:node:266032224"
                },
                {
                    "id": "osm:node:266032415",
                    "lat": 34.4712655,
                    "lon": 131.4498012,
                    "mergeKey": "osm:node:266032415",
                    "name": "長門大井",
                    "nameEn": "Nagato-Ōi",
                    "routeIds": [],
                    "sourceId": "osm:node:266032415"
                },
                {
                    "id": "osm:node:266032710",
                    "lat": 34.366219,
                    "lon": 131.2364119,
                    "mergeKey": "osm:node:266032710",
                    "name": "長門三隅",
                    "nameEn": "Nagato-Misumi",
                    "routeIds": [],
                    "sourceId": "osm:node:266032710"
                },
                {
                    "id": "osm:node:266032712",
                    "lat": 34.3938041,
                    "lon": 131.4010475,
                    "mergeKey": "osm:node:266032712",
                    "name": "萩",
                    "nameEn": "Hagi",
                    "routeIds": [],
                    "sourceId": "osm:node:266032712"
                },
                {
                    "id": "osm:node:266032796",
                    "lat": 34.6380909,
                    "lon": 131.6619984,
                    "mergeKey": "osm:node:266032796",
                    "name": "江崎",
                    "nameEn": "Esaki",
                    "routeIds": [],
                    "sourceId": "osm:node:266032796"
                },
                {
                    "id": "osm:node:266033094",
                    "lat": 34.0249018,
                    "lon": 130.916698,
                    "mergeKey": "osm:node:266033094",
                    "name": "安岡",
                    "nameEn": "Yasuoka",
                    "routeIds": [],
                    "sourceId": "osm:node:266033094"
                },
                {
                    "id": "osm:node:266033095",
                    "lat": 34.101511,
                    "lon": 130.9002362,
                    "mergeKey": "osm:node:266033095",
                    "name": "梅ヶ峠",
                    "nameEn": "Umegatō",
                    "routeIds": [],
                    "sourceId": "osm:node:266033095"
                },
                {
                    "id": "osm:node:266033109",
                    "lat": 34.3851713,
                    "lon": 131.1398057,
                    "mergeKey": "osm:node:266033109",
                    "name": "黄波戸",
                    "nameEn": "Kiwado",
                    "routeIds": [],
                    "sourceId": "osm:node:266033109"
                },
                {
                    "id": "osm:node:266033169",
                    "lat": 34.3886611,
                    "lon": 131.102361,
                    "mergeKey": "osm:node:266033169",
                    "name": "長門古市",
                    "nameEn": "Nagato-Furuichi",
                    "routeIds": [],
                    "sourceId": "osm:node:266033169"
                },
                {
                    "id": "osm:node:266033170",
                    "lat": 34.1277232,
                    "lon": 130.9121029,
                    "mergeKey": "osm:node:266033170",
                    "name": "黒井村",
                    "nameEn": "Kuroimura",
                    "routeIds": [],
                    "sourceId": "osm:node:266033170"
                },
                {
                    "id": "osm:node:266033178",
                    "lat": 34.0702037,
                    "lon": 130.9034869,
                    "mergeKey": "osm:node:266033178",
                    "name": "吉見",
                    "nameEn": "Yoshimi",
                    "routeIds": [],
                    "sourceId": "osm:node:266033178"
                },
                {
                    "id": "osm:node:266034495",
                    "lat": 34.0039194,
                    "lon": 130.926721,
                    "mergeKey": "osm:node:266034495",
                    "name": "綾羅木",
                    "nameEn": "Ayaragi",
                    "routeIds": [],
                    "sourceId": "osm:node:266034495"
                },
                {
                    "id": "osm:node:266034496",
                    "lat": 34.3704236,
                    "lon": 131.0113316,
                    "mergeKey": "osm:node:266034496",
                    "name": "伊上",
                    "nameEn": "Igami",
                    "routeIds": [],
                    "sourceId": "osm:node:266034496"
                },
                {
                    "id": "osm:node:266034671",
                    "lat": 34.1697783,
                    "lon": 130.9280746,
                    "mergeKey": "osm:node:266034671",
                    "name": "小串",
                    "nameEn": "Kogushi",
                    "routeIds": [],
                    "sourceId": "osm:node:266034671"
                },
                {
                    "id": "osm:node:266034800",
                    "lat": 34.1464995,
                    "lon": 130.9223059,
                    "mergeKey": "osm:node:266034800",
                    "name": "川棚温泉",
                    "nameEn": "Kawatana-Onsen",
                    "routeIds": [],
                    "sourceId": "osm:node:266034800"
                },
                {
                    "id": "osm:node:266034801",
                    "lat": 34.283354,
                    "lon": 130.946211,
                    "mergeKey": "osm:node:266034801",
                    "name": "滝部",
                    "nameEn": "Takibe",
                    "routeIds": [],
                    "sourceId": "osm:node:266034801"
                },
                {
                    "id": "osm:node:266034803",
                    "lat": 34.3878876,
                    "lon": 131.1989521,
                    "mergeKey": "osm:node:266034803",
                    "name": "仙崎",
                    "nameEn": "Senzaki",
                    "routeIds": [],
                    "sourceId": "osm:node:266034803"
                },
                {
                    "id": "osm:node:266035331",
                    "lat": 34.2091084,
                    "lon": 130.9326946,
                    "mergeKey": "osm:node:266035331",
                    "name": "湯玉",
                    "nameEn": "Yutama",
                    "routeIds": [],
                    "sourceId": "osm:node:266035331"
                },
                {
                    "id": "osm:node:266035335",
                    "lat": 34.227629,
                    "lon": 130.927371,
                    "mergeKey": "osm:node:266035335",
                    "name": "宇賀本郷",
                    "nameEn": "Ukahongō",
                    "routeIds": [],
                    "sourceId": "osm:node:266035335"
                },
                {
                    "id": "osm:node:266035376",
                    "lat": 34.3578837,
                    "lon": 130.9708825,
                    "mergeKey": "osm:node:266035376",
                    "name": "長門粟野",
                    "nameEn": "Nagato-Awano",
                    "routeIds": [],
                    "sourceId": "osm:node:266035376"
                },
                {
                    "id": "osm:node:266035378",
                    "lat": 34.0471135,
                    "lon": 130.9156608,
                    "mergeKey": "osm:node:266035378",
                    "name": "福江",
                    "nameEn": "Fukue",
                    "routeIds": [],
                    "sourceId": "osm:node:266035378"
                },
                {
                    "id": "osm:node:266035582",
                    "lat": 34.3059947,
                    "lon": 130.9186967,
                    "mergeKey": "osm:node:266035582",
                    "name": "特牛",
                    "nameEn": "Kottoi",
                    "routeIds": [],
                    "sourceId": "osm:node:266035582"
                },
                {
                    "id": "osm:node:266035583",
                    "lat": 34.3743933,
                    "lon": 131.0579649,
                    "mergeKey": "osm:node:266035583",
                    "name": "人丸",
                    "nameEn": "Hitomaru",
                    "routeIds": [],
                    "sourceId": "osm:node:266035583"
                },
                {
                    "id": "osm:node:266036189",
                    "lat": 34.2521518,
                    "lon": 130.9155325,
                    "mergeKey": "osm:node:266036189",
                    "name": "長門二見",
                    "nameEn": "Nagato Futami",
                    "routeIds": [],
                    "sourceId": "osm:node:266036189"
                },
                {
                    "id": "osm:node:266045429",
                    "lat": 34.9431902,
                    "lon": 133.3326139,
                    "mergeKey": "osm:node:266045429",
                    "name": "矢神",
                    "nameEn": "Yagami",
                    "routeIds": [],
                    "sourceId": "osm:node:266045429"
                },
                {
                    "id": "osm:node:266045431",
                    "lat": 34.9015307,
                    "lon": 133.273792,
                    "mergeKey": "osm:node:266045431",
                    "name": "東城",
                    "nameEn": "Tōjō",
                    "routeIds": [],
                    "sourceId": "osm:node:266045431"
                },
                {
                    "id": "osm:node:266045472",
                    "lat": 34.9663099,
                    "lon": 133.34677,
                    "mergeKey": "osm:node:266045472",
                    "name": "市岡",
                    "nameEn": "Ichioka",
                    "routeIds": [],
                    "sourceId": "osm:node:266045472"
                },
                {
                    "id": "osm:node:266045474",
                    "lat": 34.9149754,
                    "lon": 133.3167741,
                    "mergeKey": "osm:node:266045474",
                    "name": "野馳",
                    "nameEn": "Nochi",
                    "routeIds": [],
                    "sourceId": "osm:node:266045474"
                },
                {
                    "id": "osm:node:266045671",
                    "lat": 34.9729672,
                    "lon": 133.3707349,
                    "mergeKey": "osm:node:266045671",
                    "name": "坂根",
                    "nameEn": "Sakane",
                    "routeIds": [],
                    "sourceId": "osm:node:266045671"
                },
                {
                    "id": "osm:node:266045818",
                    "lat": 34.9381373,
                    "lon": 133.2318641,
                    "mergeKey": "osm:node:266045818",
                    "name": "備後八幡",
                    "nameEn": "Bingo-Yawata",
                    "routeIds": [],
                    "sourceId": "osm:node:266045818"
                },
                {
                    "id": "osm:node:266046184",
                    "lat": 34.9649835,
                    "lon": 133.2317751,
                    "mergeKey": "osm:node:266046184",
                    "name": "内名",
                    "nameEn": "Uchina",
                    "routeIds": [],
                    "sourceId": "osm:node:266046184"
                },
                {
                    "id": "osm:node:266046226",
                    "lat": 34.9940543,
                    "lon": 133.2109654,
                    "mergeKey": "osm:node:266046226",
                    "name": "小奴可",
                    "nameEn": "Onuka",
                    "routeIds": [],
                    "sourceId": "osm:node:266046226"
                },
                {
                    "id": "osm:node:266046237",
                    "lat": 34.9402345,
                    "lon": 133.1196386,
                    "mergeKey": "osm:node:266046237",
                    "name": "備後西城",
                    "nameEn": "Bingo-Saijo",
                    "routeIds": [],
                    "sourceId": "osm:node:266046237"
                },
                {
                    "id": "osm:node:266046296",
                    "lat": 34.9659636,
                    "lon": 133.1232051,
                    "mergeKey": "osm:node:266046296",
                    "name": "比婆山",
                    "nameEn": "Hibayama",
                    "routeIds": [],
                    "sourceId": "osm:node:266046296"
                },
                {
                    "id": "osm:node:266047285",
                    "lat": 35.0109318,
                    "lon": 133.1782422,
                    "mergeKey": "osm:node:266047285",
                    "name": "道後山",
                    "nameEn": "Dogoyama",
                    "routeIds": [],
                    "sourceId": "osm:node:266047285"
                },
                {
                    "id": "osm:node:266048287",
                    "lat": 34.8778813,
                    "lon": 133.0706189,
                    "mergeKey": "osm:node:266048287",
                    "name": "高",
                    "nameEn": "Taka",
                    "routeIds": [],
                    "sourceId": "osm:node:266048287"
                },
                {
                    "id": "osm:node:266048424",
                    "lat": 34.91274,
                    "lon": 133.1000317,
                    "mergeKey": "osm:node:266048424",
                    "name": "平子",
                    "nameEn": "Hirako",
                    "routeIds": [],
                    "sourceId": "osm:node:266048424"
                },
                {
                    "id": "osm:node:266048434",
                    "lat": 34.8446151,
                    "lon": 132.9860591,
                    "mergeKey": "osm:node:266048434",
                    "name": "七塚",
                    "nameEn": "Nanatsuka",
                    "routeIds": [],
                    "sourceId": "osm:node:266048434"
                },
                {
                    "id": "osm:node:266050019",
                    "lat": 34.8547921,
                    "lon": 132.9983029,
                    "mergeKey": "osm:node:266050019",
                    "name": "備後三日市",
                    "nameEn": "Bingo-Mikkaichi",
                    "routeIds": [],
                    "sourceId": "osm:node:266050019"
                },
                {
                    "id": "osm:node:266050658",
                    "lat": 34.8623737,
                    "lon": 133.0164899,
                    "mergeKey": "osm:node:266050658",
                    "name": "備後庄原",
                    "nameEn": "Bingo-Shobara",
                    "routeIds": [],
                    "sourceId": "osm:node:266050658"
                },
                {
                    "id": "osm:node:266051179",
                    "lat": 34.381602,
                    "lon": 132.4039841,
                    "mergeKey": "osm:node:266051179",
                    "name": "草津",
                    "nameEn": "Kusatsu",
                    "routeIds": [],
                    "sourceId": "osm:node:266051179"
                },
                {
                    "id": "osm:node:266051643",
                    "lat": 34.3718279,
                    "lon": 132.3860135,
                    "mergeKey": "osm:node:266051643",
                    "name": "井口",
                    "nameEn": "Inokuchi",
                    "routeIds": [],
                    "sourceId": "osm:node:266051643"
                },
                {
                    "id": "osm:node:266053978",
                    "lat": 34.1566233,
                    "lon": 132.1773925,
                    "mergeKey": "osm:node:266053978",
                    "name": "川西",
                    "nameEn": "Kawanishi",
                    "routeIds": [],
                    "sourceId": "osm:node:266053978"
                },
                {
                    "id": "osm:node:266054144",
                    "lat": 34.1041452,
                    "lon": 132.1015094,
                    "mergeKey": "osm:node:266054144",
                    "name": "欽明路",
                    "nameEn": "Kimmeiji",
                    "routeIds": [],
                    "sourceId": "osm:node:266054144"
                },
                {
                    "id": "osm:node:266054261",
                    "lat": 34.0908097,
                    "lon": 132.0465956,
                    "mergeKey": "osm:node:266054261",
                    "name": "周防高森",
                    "nameEn": "Suō-Takamori",
                    "routeIds": [],
                    "sourceId": "osm:node:266054261"
                },
                {
                    "id": "osm:node:266054410",
                    "lat": 34.1433559,
                    "lon": 132.1543895,
                    "mergeKey": "osm:node:266054410",
                    "name": "柱野",
                    "nameEn": "Hashirano",
                    "routeIds": [],
                    "sourceId": "osm:node:266054410"
                },
                {
                    "id": "osm:node:266054429",
                    "lat": 34.0971923,
                    "lon": 132.0823683,
                    "mergeKey": "osm:node:266054429",
                    "name": "玖珂",
                    "nameEn": "Kuga",
                    "routeIds": [],
                    "sourceId": "osm:node:266054429"
                },
                {
                    "id": "osm:node:266054849",
                    "lat": 34.0554116,
                    "lon": 131.9729105,
                    "mergeKey": "osm:node:266054849",
                    "name": "高水",
                    "nameEn": "Takamizu",
                    "routeIds": [],
                    "sourceId": "osm:node:266054849"
                },
                {
                    "id": "osm:node:266054851",
                    "lat": 34.0310485,
                    "lon": 131.9342773,
                    "mergeKey": "osm:node:266054851",
                    "name": "大河内",
                    "nameEn": "Ōkawachi",
                    "routeIds": [],
                    "sourceId": "osm:node:266054851"
                },
                {
                    "id": "osm:node:266055062",
                    "lat": 34.0745031,
                    "lon": 132.0144021,
                    "mergeKey": "osm:node:266055062",
                    "name": "米川",
                    "nameEn": "Yonekawa",
                    "routeIds": [],
                    "sourceId": "osm:node:266055062"
                },
                {
                    "id": "osm:node:266055125",
                    "lat": 34.0419935,
                    "lon": 131.9540907,
                    "mergeKey": "osm:node:266055125",
                    "name": "勝間",
                    "nameEn": "Katsuma",
                    "routeIds": [],
                    "sourceId": "osm:node:266055125"
                },
                {
                    "id": "osm:node:266055127",
                    "lat": 34.0290793,
                    "lon": 131.919179,
                    "mergeKey": "osm:node:266055127",
                    "name": "周防久保",
                    "nameEn": "Suō-Kubo",
                    "routeIds": [],
                    "sourceId": "osm:node:266055127"
                },
                {
                    "id": "osm:node:266055686",
                    "lat": 34.0354265,
                    "lon": 131.8871446,
                    "mergeKey": "osm:node:266055686",
                    "name": "生野屋",
                    "nameEn": "Ikunoya",
                    "routeIds": [],
                    "sourceId": "osm:node:266055686"
                },
                {
                    "id": "osm:node:266055841",
                    "lat": 34.0359125,
                    "lon": 131.8680045,
                    "mergeKey": "osm:node:266055841",
                    "name": "周防花岡",
                    "nameEn": "Suō-Hanaoka",
                    "routeIds": [],
                    "sourceId": "osm:node:266055841"
                },
                {
                    "id": "osm:node:266058263",
                    "lat": 34.1377521,
                    "lon": 131.161171,
                    "mergeKey": "osm:node:266058263",
                    "name": "四郎ヶ原",
                    "nameEn": "Shirōgahara",
                    "routeIds": [],
                    "sourceId": "osm:node:266058263"
                },
                {
                    "id": "osm:node:266058270",
                    "lat": 34.1939059,
                    "lon": 131.2086944,
                    "mergeKey": "osm:node:266058270",
                    "name": "重安",
                    "nameEn": "Shigeyasu",
                    "routeIds": [],
                    "sourceId": "osm:node:266058270"
                },
                {
                    "id": "osm:node:266058274",
                    "lat": 34.1616441,
                    "lon": 131.1850823,
                    "mergeKey": "osm:node:266058274",
                    "name": "南大嶺",
                    "nameEn": "Minami-Ōmine",
                    "routeIds": [],
                    "sourceId": "osm:node:266058274"
                },
                {
                    "id": "osm:node:266058280",
                    "lat": 34.1692082,
                    "lon": 131.2042663,
                    "mergeKey": "osm:node:266058280",
                    "name": "美祢",
                    "nameEn": "Mine",
                    "routeIds": [],
                    "sourceId": "osm:node:266058280"
                },
                {
                    "id": "osm:node:266058410",
                    "lat": 34.1141295,
                    "lon": 131.1546903,
                    "mergeKey": "osm:node:266058410",
                    "name": "厚保",
                    "nameEn": "Atsu",
                    "routeIds": [],
                    "sourceId": "osm:node:266058410"
                },
                {
                    "id": "osm:node:266058698",
                    "lat": 34.2362568,
                    "lon": 131.2079669,
                    "mergeKey": "osm:node:266058698",
                    "name": "於福",
                    "nameEn": "Ofuku",
                    "routeIds": [],
                    "sourceId": "osm:node:266058698"
                },
                {
                    "id": "osm:node:266058700",
                    "lat": 34.0856267,
                    "lon": 131.1727406,
                    "mergeKey": "osm:node:266058700",
                    "name": "湯ノ峠",
                    "nameEn": "Yunotō",
                    "routeIds": [],
                    "sourceId": "osm:node:266058700"
                },
                {
                    "id": "osm:node:266058799",
                    "lat": 34.375332,
                    "lon": 131.1850803,
                    "mergeKey": "osm:node:266058799",
                    "name": "長門市",
                    "nameEn": "Nagatoshi",
                    "routeIds": [],
                    "sourceId": "osm:node:266058799"
                },
                {
                    "id": "osm:node:266058801",
                    "lat": 34.3344883,
                    "lon": 131.1725893,
                    "mergeKey": "osm:node:266058801",
                    "name": "長門湯本",
                    "nameEn": "Nagato-Yumoto",
                    "routeIds": [],
                    "sourceId": "osm:node:266058801"
                },
                {
                    "id": "osm:node:266058803",
                    "lat": 34.3535933,
                    "lon": 131.1765834,
                    "mergeKey": "osm:node:266058803",
                    "name": "板持",
                    "nameEn": "Itamochi",
                    "routeIds": [],
                    "sourceId": "osm:node:266058803"
                },
                {
                    "id": "osm:node:266059108",
                    "lat": 34.3116906,
                    "lon": 131.1964891,
                    "mergeKey": "osm:node:266059108",
                    "name": "渋木",
                    "nameEn": "Shibuki",
                    "routeIds": [],
                    "sourceId": "osm:node:266059108"
                },
                {
                    "id": "osm:node:266062073",
                    "lat": 33.9868871,
                    "lon": 131.1783088,
                    "mergeKey": "osm:node:266062073",
                    "name": "南中川",
                    "nameEn": "Minami-Nakagawa",
                    "routeIds": [],
                    "sourceId": "osm:node:266062073"
                },
                {
                    "id": "osm:node:266063805",
                    "lat": 34.421205,
                    "lon": 131.7341482,
                    "mergeKey": "osm:node:266063805",
                    "name": "船平山",
                    "nameEn": "Funahirayama",
                    "routeIds": [],
                    "sourceId": "osm:node:266063805"
                },
                {
                    "id": "osm:node:266063809",
                    "lat": 34.6525586,
                    "lon": 131.8269928,
                    "mergeKey": "osm:node:266063809",
                    "name": "本俣賀",
                    "nameEn": "Honmataga",
                    "routeIds": [],
                    "sourceId": "osm:node:266063809"
                },
                {
                    "id": "osm:node:266063999",
                    "lat": 34.481042,
                    "lon": 131.802836,
                    "mergeKey": "osm:node:266063999",
                    "name": "青野山",
                    "nameEn": "Aonoyama",
                    "routeIds": [],
                    "sourceId": "osm:node:266063999"
                },
                {
                    "id": "osm:node:266064887",
                    "lat": 34.5602093,
                    "lon": 131.8007579,
                    "mergeKey": "osm:node:266064887",
                    "name": "青原",
                    "nameEn": "Aohara",
                    "routeIds": [],
                    "sourceId": "osm:node:266064887"
                },
                {
                    "id": "osm:node:266065189",
                    "lat": 34.353824,
                    "lon": 131.651555,
                    "mergeKey": "osm:node:266065189",
                    "name": "名草",
                    "nameEn": "Nagusa",
                    "routeIds": [],
                    "sourceId": "osm:node:266065189"
                },
                {
                    "id": "osm:node:266065263",
                    "lat": 34.2165357,
                    "lon": 131.5362585,
                    "mergeKey": "osm:node:266065263",
                    "name": "仁保",
                    "nameEn": "Niho",
                    "routeIds": [],
                    "sourceId": "osm:node:266065263"
                },
                {
                    "id": "osm:node:266065288",
                    "lat": 34.2787128,
                    "lon": 131.5620367,
                    "mergeKey": "osm:node:266065288",
                    "name": "篠目",
                    "nameEn": "Shinome",
                    "routeIds": [],
                    "sourceId": "osm:node:266065288"
                },
                {
                    "id": "osm:node:266065308",
                    "lat": 34.1825922,
                    "lon": 131.48498,
                    "mergeKey": "osm:node:266065308",
                    "name": "上山口",
                    "nameEn": "Kami-Yamaguchi",
                    "routeIds": [],
                    "sourceId": "osm:node:266065308"
                },
                {
                    "id": "osm:node:266065358",
                    "lat": 34.304478,
                    "lon": 131.5787966,
                    "mergeKey": "osm:node:266065358",
                    "name": "長門峡",
                    "nameEn": "Chōmonkyō",
                    "routeIds": [],
                    "sourceId": "osm:node:266065358"
                },
                {
                    "id": "osm:node:266065495",
                    "lat": 34.1912927,
                    "lon": 131.4985459,
                    "mergeKey": "osm:node:266065495",
                    "name": "宮野",
                    "nameEn": "Miyano",
                    "routeIds": [],
                    "sourceId": "osm:node:266065495"
                },
                {
                    "id": "osm:node:266065765",
                    "lat": 34.3227616,
                    "lon": 131.6037854,
                    "mergeKey": "osm:node:266065765",
                    "name": "渡川",
                    "nameEn": "Watarigawa",
                    "routeIds": [],
                    "sourceId": "osm:node:266065765"
                },
                {
                    "id": "osm:node:266066856",
                    "lat": 34.3783919,
                    "lon": 131.6945218,
                    "mergeKey": "osm:node:266066856",
                    "name": "鍋倉",
                    "nameEn": "Nabekura",
                    "routeIds": [],
                    "sourceId": "osm:node:266066856"
                },
                {
                    "id": "osm:node:266067240",
                    "lat": 34.3631422,
                    "lon": 131.6748348,
                    "mergeKey": "osm:node:266067240",
                    "name": "地福",
                    "nameEn": "Jifuku",
                    "routeIds": [],
                    "sourceId": "osm:node:266067240"
                },
                {
                    "id": "osm:node:266078129",
                    "lat": 34.9931893,
                    "lon": 132.6150966,
                    "mergeKey": "osm:node:266078129",
                    "name": "石見松原",
                    "nameEn": "Iwami-Matsubara",
                    "routeIds": [],
                    "sourceId": "osm:node:266078129"
                },
                {
                    "id": "osm:node:266078134",
                    "lat": 35.0424097,
                    "lon": 132.5658669,
                    "mergeKey": "osm:node:266078134",
                    "name": "石見簗瀬",
                    "nameEn": "Iwami-Yanaze",
                    "routeIds": [],
                    "sourceId": "osm:node:266078134"
                },
                {
                    "id": "osm:node:266078140",
                    "lat": 34.9566074,
                    "lon": 132.6427262,
                    "mergeKey": "osm:node:266078140",
                    "name": "石見都賀",
                    "nameEn": "Iwami-Tsuga",
                    "routeIds": [],
                    "sourceId": "osm:node:266078140"
                },
                {
                    "id": "osm:node:266078144",
                    "lat": 35.0492512,
                    "lon": 132.583902,
                    "mergeKey": "osm:node:266078144",
                    "name": "明塚",
                    "nameEn": "Akatsuka",
                    "routeIds": [],
                    "sourceId": "osm:node:266078144"
                },
                {
                    "id": "osm:node:266078477",
                    "lat": 35.0578234,
                    "lon": 132.6350442,
                    "mergeKey": "osm:node:266078477",
                    "name": "沢谷",
                    "nameEn": "Sawadani",
                    "routeIds": [],
                    "sourceId": "osm:node:266078477"
                },
                {
                    "id": "osm:node:266078479",
                    "lat": 35.0156311,
                    "lon": 132.6323353,
                    "mergeKey": "osm:node:266078479",
                    "name": "潮",
                    "nameEn": "Ushio",
                    "routeIds": [],
                    "sourceId": "osm:node:266078479"
                },
                {
                    "id": "osm:node:266079048",
                    "lat": 35.0598737,
                    "lon": 132.5994329,
                    "mergeKey": "osm:node:266079048",
                    "name": "浜原",
                    "nameEn": "Hamahara",
                    "routeIds": [],
                    "sourceId": "osm:node:266079048"
                },
                {
                    "id": "osm:node:266079050",
                    "lat": 35.072514,
                    "lon": 132.593449,
                    "mergeKey": "osm:node:266079050",
                    "name": "粕淵",
                    "nameEn": "Kasubuchi",
                    "routeIds": [],
                    "sourceId": "osm:node:266079050"
                },
                {
                    "id": "osm:node:266079313",
                    "lat": 34.875702,
                    "lon": 132.702179,
                    "mergeKey": "osm:node:266079313",
                    "name": "江平",
                    "nameEn": "Gobira",
                    "routeIds": [],
                    "sourceId": "osm:node:266079313"
                },
                {
                    "id": "osm:node:266079340",
                    "lat": 34.860656,
                    "lon": 132.706725,
                    "mergeKey": "osm:node:266079340",
                    "name": "作木口",
                    "nameEn": "Sakugiguchi",
                    "routeIds": [],
                    "sourceId": "osm:node:266079340"
                },
                {
                    "id": "osm:node:266079438",
                    "lat": 34.895317,
                    "lon": 132.660913,
                    "mergeKey": "osm:node:266079438",
                    "name": "伊賀和志",
                    "nameEn": "Ikawashi",
                    "routeIds": [],
                    "sourceId": "osm:node:266079438"
                },
                {
                    "id": "osm:node:266079582",
                    "lat": 34.906668,
                    "lon": 132.629625,
                    "mergeKey": "osm:node:266079582",
                    "name": "宇都井",
                    "nameEn": "Uzui",
                    "routeIds": [],
                    "sourceId": "osm:node:266079582"
                },
                {
                    "id": "osm:node:266079585",
                    "lat": 34.8271568,
                    "lon": 132.7130003,
                    "mergeKey": "osm:node:266079585",
                    "name": "香淀",
                    "nameEn": "Koyodo",
                    "routeIds": [],
                    "sourceId": "osm:node:266079585"
                },
                {
                    "id": "osm:node:266079680",
                    "lat": 34.8158532,
                    "lon": 132.7130169,
                    "mergeKey": "osm:node:266079680",
                    "name": "式敷",
                    "nameEn": "Shikijiki",
                    "routeIds": [],
                    "sourceId": "osm:node:266079680"
                },
                {
                    "id": "osm:node:266079787",
                    "lat": 34.8079664,
                    "lon": 132.7657747,
                    "mergeKey": "osm:node:266079787",
                    "name": "船佐",
                    "nameEn": "Funasa",
                    "routeIds": [],
                    "sourceId": "osm:node:266079787"
                },
                {
                    "id": "osm:node:266079926",
                    "lat": 34.8032182,
                    "lon": 132.7881533,
                    "mergeKey": "osm:node:266079926",
                    "name": "長谷",
                    "nameEn": "Nagatani",
                    "routeIds": [],
                    "sourceId": "osm:node:266079926"
                },
                {
                    "id": "osm:node:266079992",
                    "lat": 34.8131224,
                    "lon": 132.8415256,
                    "mergeKey": "osm:node:266079992",
                    "name": "尾関山",
                    "nameEn": "Ozekiyama",
                    "routeIds": [],
                    "sourceId": "osm:node:266079992"
                },
                {
                    "id": "osm:node:266080049",
                    "lat": 34.810104,
                    "lon": 132.750379,
                    "mergeKey": "osm:node:266080049",
                    "name": "所木",
                    "nameEn": "Tokorogi",
                    "routeIds": [],
                    "sourceId": "osm:node:266080049"
                },
                {
                    "id": "osm:node:266080053",
                    "lat": 34.809864,
                    "lon": 132.812543,
                    "mergeKey": "osm:node:266080053",
                    "name": "粟屋",
                    "nameEn": "Awaya",
                    "routeIds": [],
                    "sourceId": "osm:node:266080053"
                },
                {
                    "id": "osm:node:266080169",
                    "lat": 34.812812,
                    "lon": 132.731121,
                    "mergeKey": "osm:node:266080169",
                    "name": "信木",
                    "nameEn": "Nobuki",
                    "routeIds": [],
                    "sourceId": "osm:node:266080169"
                },
                {
                    "id": "osm:node:266081128",
                    "lat": 34.9630679,
                    "lon": 132.4456067,
                    "mergeKey": "osm:node:266081128",
                    "name": "鹿賀",
                    "nameEn": "Shikaga",
                    "routeIds": [],
                    "sourceId": "osm:node:266081128"
                },
                {
                    "id": "osm:node:266081256",
                    "lat": 35.0017784,
                    "lon": 132.2497367,
                    "mergeKey": "osm:node:266081256",
                    "name": "千金",
                    "nameEn": "Chigane",
                    "routeIds": [],
                    "sourceId": "osm:node:266081256"
                },
                {
                    "id": "osm:node:266081268",
                    "lat": 34.9970918,
                    "lon": 132.5082627,
                    "mergeKey": "osm:node:266081268",
                    "name": "木路原",
                    "nameEn": "Kirohara",
                    "routeIds": [],
                    "sourceId": "osm:node:266081268"
                },
                {
                    "id": "osm:node:266083948",
                    "lat": 34.9914164,
                    "lon": 132.4926553,
                    "mergeKey": "osm:node:266083948",
                    "name": "石見川本",
                    "nameEn": "Iwami-Kawamoto",
                    "routeIds": [],
                    "sourceId": "osm:node:266083948"
                },
                {
                    "id": "osm:node:266084053",
                    "lat": 35.0129863,
                    "lon": 132.5300466,
                    "mergeKey": "osm:node:266084053",
                    "name": "竹",
                    "nameEn": "Take",
                    "routeIds": [],
                    "sourceId": "osm:node:266084053"
                },
                {
                    "id": "osm:node:266084377",
                    "lat": 34.9498247,
                    "lon": 132.4150967,
                    "mergeKey": "osm:node:266084377",
                    "name": "石見川越",
                    "nameEn": "Iwami-Kawagoe",
                    "routeIds": [],
                    "sourceId": "osm:node:266084377"
                },
                {
                    "id": "osm:node:266084437",
                    "lat": 34.9598687,
                    "lon": 132.3334492,
                    "mergeKey": "osm:node:266084437",
                    "name": "川戸",
                    "nameEn": "Kawado",
                    "routeIds": [],
                    "sourceId": "osm:node:266084437"
                },
                {
                    "id": "osm:node:266084664",
                    "lat": 34.9968834,
                    "lon": 132.2849596,
                    "mergeKey": "osm:node:266084664",
                    "name": "川平",
                    "nameEn": "Kawahira",
                    "routeIds": [],
                    "sourceId": "osm:node:266084664"
                },
                {
                    "id": "osm:node:266084761",
                    "lat": 35.026529,
                    "lon": 132.54764,
                    "mergeKey": "osm:node:266084761",
                    "name": "乙原",
                    "nameEn": "Ombara",
                    "routeIds": [],
                    "sourceId": "osm:node:266084761"
                },
                {
                    "id": "osm:node:266085113",
                    "lat": 35.006865,
                    "lon": 132.23051,
                    "mergeKey": "osm:node:266085113",
                    "name": "江津本町",
                    "nameEn": "Gotsuhommachi",
                    "routeIds": [],
                    "sourceId": "osm:node:266085113"
                },
                {
                    "id": "osm:node:266085118",
                    "lat": 34.9517089,
                    "lon": 132.3854045,
                    "mergeKey": "osm:node:266085118",
                    "name": "田津",
                    "nameEn": "Tazu",
                    "routeIds": [],
                    "sourceId": "osm:node:266085118"
                },
                {
                    "id": "osm:node:266088575",
                    "lat": 35.0388593,
                    "lon": 133.3836136,
                    "mergeKey": "osm:node:266088575",
                    "name": "足立",
                    "nameEn": "Ashidachi",
                    "routeIds": [],
                    "sourceId": "osm:node:266088575"
                },
                {
                    "id": "osm:node:266088913",
                    "lat": 35.1937828,
                    "lon": 133.3415741,
                    "mergeKey": "osm:node:266088913",
                    "name": "上菅",
                    "nameEn": "Kamisuge",
                    "routeIds": [],
                    "sourceId": "osm:node:266088913"
                },
                {
                    "id": "osm:node:266089170",
                    "lat": 35.267501,
                    "lon": 133.4764904,
                    "mergeKey": "osm:node:266089170",
                    "name": "武庫",
                    "nameEn": "Muko",
                    "routeIds": [],
                    "sourceId": "osm:node:266089170"
                },
                {
                    "id": "osm:node:266090810",
                    "lat": 35.2832987,
                    "lon": 133.4849214,
                    "mergeKey": "osm:node:266090810",
                    "name": "江尾",
                    "nameEn": "Ebi",
                    "routeIds": [],
                    "sourceId": "osm:node:266090810"
                },
                {
                    "id": "osm:node:266913453",
                    "lat": 35.1964823,
                    "lon": 133.00992,
                    "mergeKey": "osm:node:266913453",
                    "name": "出雲三成",
                    "nameEn": "Izumo-Minari",
                    "routeIds": [],
                    "sourceId": "osm:node:266913453"
                },
                {
                    "id": "osm:node:266913794",
                    "lat": 35.0446775,
                    "lon": 133.1192858,
                    "mergeKey": "osm:node:266913794",
                    "name": "油木",
                    "nameEn": "Yuki",
                    "routeIds": [],
                    "sourceId": "osm:node:266913794"
                },
                {
                    "id": "osm:node:266914070",
                    "lat": 35.2648144,
                    "lon": 132.9922714,
                    "mergeKey": "osm:node:266914070",
                    "name": "下久野",
                    "nameEn": "Shimokuno",
                    "routeIds": [],
                    "sourceId": "osm:node:266914070"
                },
                {
                    "id": "osm:node:266914178",
                    "lat": 35.2272687,
                    "lon": 133.0014627,
                    "mergeKey": "osm:node:266914178",
                    "name": "出雲八代",
                    "nameEn": "Izumo-Yashiro",
                    "routeIds": [],
                    "sourceId": "osm:node:266914178"
                },
                {
                    "id": "osm:node:266914183",
                    "lat": 35.3348104,
                    "lon": 132.9393875,
                    "mergeKey": "osm:node:266914183",
                    "name": "幡屋",
                    "nameEn": "Hataya",
                    "routeIds": [],
                    "sourceId": "osm:node:266914183"
                },
                {
                    "id": "osm:node:266914403",
                    "lat": 35.206545,
                    "lon": 133.05331,
                    "mergeKey": "osm:node:266914403",
                    "name": "亀嵩",
                    "nameEn": "Kamedake",
                    "routeIds": [],
                    "sourceId": "osm:node:266914403"
                },
                {
                    "id": "osm:node:266914465",
                    "lat": 35.380054,
                    "lon": 132.917843,
                    "mergeKey": "osm:node:266914465",
                    "name": "南宍道",
                    "nameEn": "Minami-Shinji",
                    "routeIds": [],
                    "sourceId": "osm:node:266914465"
                },
                {
                    "id": "osm:node:266914468",
                    "lat": 35.2764078,
                    "lon": 132.931235,
                    "mergeKey": "osm:node:266914468",
                    "name": "日登",
                    "nameEn": "Hinobori",
                    "routeIds": [],
                    "sourceId": "osm:node:266914468"
                },
                {
                    "id": "osm:node:266915272",
                    "lat": 35.3079602,
                    "lon": 132.9283746,
                    "mergeKey": "osm:node:266915272",
                    "name": "南大東",
                    "nameEn": "Minami-Daitō",
                    "routeIds": [],
                    "sourceId": "osm:node:266915272"
                },
                {
                    "id": "osm:node:266915398",
                    "lat": 35.0912688,
                    "lon": 133.1162723,
                    "mergeKey": "osm:node:266915398",
                    "name": "三井野原",
                    "nameEn": "Miinohara",
                    "routeIds": [],
                    "sourceId": "osm:node:266915398"
                },
                {
                    "id": "osm:node:266915701",
                    "lat": 35.1024693,
                    "lon": 133.1205013,
                    "mergeKey": "osm:node:266915701",
                    "name": "出雲坂根",
                    "nameEn": "Izumo-Sakane",
                    "routeIds": [],
                    "sourceId": "osm:node:266915701"
                },
                {
                    "id": "osm:node:266915846",
                    "lat": 35.149251,
                    "lon": 133.089616,
                    "mergeKey": "osm:node:266915846",
                    "name": "八川",
                    "nameEn": "Yakawa",
                    "routeIds": [],
                    "sourceId": "osm:node:266915846"
                },
                {
                    "id": "osm:node:266917675",
                    "lat": 34.546754,
                    "lon": 133.299884,
                    "mergeKey": "osm:node:266917675",
                    "name": "戸手",
                    "nameEn": "Tode",
                    "routeIds": [],
                    "sourceId": "osm:node:266917675"
                },
                {
                    "id": "osm:node:266917678",
                    "lat": 34.5678672,
                    "lon": 133.2445861,
                    "mergeKey": "osm:node:266917678",
                    "name": "鵜飼",
                    "nameEn": "Ukai",
                    "routeIds": [],
                    "sourceId": "osm:node:266917678"
                },
                {
                    "id": "osm:node:266917681",
                    "lat": 34.5543508,
                    "lon": 133.2694533,
                    "mergeKey": "osm:node:266917681",
                    "name": "新市",
                    "nameEn": "Shin-ichi",
                    "routeIds": [],
                    "sourceId": "osm:node:266917681"
                },
                {
                    "id": "osm:node:266917744",
                    "lat": 34.5535097,
                    "lon": 133.3613836,
                    "mergeKey": "osm:node:266917744",
                    "name": "道上",
                    "nameEn": "Michinoue",
                    "routeIds": [],
                    "sourceId": "osm:node:266917744"
                },
                {
                    "id": "osm:node:266917748",
                    "lat": 34.5519716,
                    "lon": 133.3710077,
                    "mergeKey": "osm:node:266917748",
                    "name": "湯田村",
                    "nameEn": "Yudamura",
                    "routeIds": [],
                    "sourceId": "osm:node:266917748"
                },
                {
                    "id": "osm:node:266917753",
                    "lat": 34.571538,
                    "lon": 133.2362383,
                    "mergeKey": "osm:node:266917753",
                    "name": "府中",
                    "nameEn": "Fuchu",
                    "routeIds": [],
                    "sourceId": "osm:node:266917753"
                },
                {
                    "id": "osm:node:266917778",
                    "lat": 34.5628176,
                    "lon": 133.2536043,
                    "mergeKey": "osm:node:266917778",
                    "name": "高木",
                    "nameEn": "Takagi",
                    "routeIds": [],
                    "sourceId": "osm:node:266917778"
                },
                {
                    "id": "osm:node:266917956",
                    "lat": 34.5489892,
                    "lon": 133.3259223,
                    "mergeKey": "osm:node:266917956",
                    "name": "駅家",
                    "nameEn": "Ekiya",
                    "routeIds": [],
                    "sourceId": "osm:node:266917956"
                },
                {
                    "id": "osm:node:266917957",
                    "lat": 34.521376,
                    "lon": 133.36333,
                    "mergeKey": "osm:node:266917957",
                    "name": "横尾",
                    "nameEn": "Yokoo",
                    "routeIds": [],
                    "sourceId": "osm:node:266917957"
                },
                {
                    "id": "osm:node:266917967",
                    "lat": 34.5371406,
                    "lon": 133.3787131,
                    "mergeKey": "osm:node:266917967",
                    "name": "神辺",
                    "nameEn": "Kannabe",
                    "routeIds": [],
                    "sourceId": "osm:node:266917967"
                },
                {
                    "id": "osm:node:266917973",
                    "lat": 34.5509873,
                    "lon": 133.3381302,
                    "mergeKey": "osm:node:266917973",
                    "name": "万能倉",
                    "nameEn": "Managura",
                    "routeIds": [],
                    "sourceId": "osm:node:266917973"
                },
                {
                    "id": "osm:node:266917975",
                    "lat": 34.5462221,
                    "lon": 133.3105806,
                    "mergeKey": "osm:node:266917975",
                    "name": "近田",
                    "nameEn": "Chikata",
                    "routeIds": [],
                    "sourceId": "osm:node:266917975"
                },
                {
                    "id": "osm:node:266918030",
                    "lat": 34.5514516,
                    "lon": 133.282431,
                    "mergeKey": "osm:node:266918030",
                    "name": "上戸手",
                    "nameEn": "Kami-Tode",
                    "routeIds": [],
                    "sourceId": "osm:node:266918030"
                },
                {
                    "id": "osm:node:266918474",
                    "lat": 34.554579,
                    "lon": 133.2049806,
                    "mergeKey": "osm:node:266918474",
                    "name": "下川辺",
                    "nameEn": "Shimokawabe",
                    "routeIds": [],
                    "sourceId": "osm:node:266918474"
                },
                {
                    "id": "osm:node:266918500",
                    "lat": 34.6305922,
                    "lon": 133.1100424,
                    "mergeKey": "osm:node:266918500",
                    "name": "備後三川",
                    "nameEn": "Bingo-Mikawa",
                    "routeIds": [],
                    "sourceId": "osm:node:266918500"
                },
                {
                    "id": "osm:node:266918823",
                    "lat": 34.664408,
                    "lon": 133.125969,
                    "mergeKey": "osm:node:266918823",
                    "name": "備後矢野",
                    "nameEn": "Bingo-Yano",
                    "routeIds": [],
                    "sourceId": "osm:node:266918823"
                },
                {
                    "id": "osm:node:266919143",
                    "lat": 34.5899839,
                    "lon": 133.166295,
                    "mergeKey": "osm:node:266919143",
                    "name": "河佐",
                    "nameEn": "Kawasa",
                    "routeIds": [],
                    "sourceId": "osm:node:266919143"
                },
                {
                    "id": "osm:node:266919146",
                    "lat": 34.7276542,
                    "lon": 132.9908831,
                    "mergeKey": "osm:node:266919146",
                    "name": "吉舎",
                    "nameEn": "Kisa",
                    "routeIds": [],
                    "sourceId": "osm:node:266919146"
                },
                {
                    "id": "osm:node:266919204",
                    "lat": 34.7037412,
                    "lon": 133.0816582,
                    "mergeKey": "osm:node:266919204",
                    "name": "甲奴",
                    "nameEn": "Konu",
                    "routeIds": [],
                    "sourceId": "osm:node:266919204"
                },
                {
                    "id": "osm:node:266919206",
                    "lat": 34.766254,
                    "lon": 132.9575902,
                    "mergeKey": "osm:node:266919206",
                    "name": "三良坂",
                    "nameEn": "Mirasaka",
                    "routeIds": [],
                    "sourceId": "osm:node:266919206"
                },
                {
                    "id": "osm:node:266919494",
                    "lat": 34.7410333,
                    "lon": 133.0339178,
                    "mergeKey": "osm:node:266919494",
                    "name": "備後安田",
                    "nameEn": "Bingo-Yasuda",
                    "routeIds": [],
                    "sourceId": "osm:node:266919494"
                },
                {
                    "id": "osm:node:266919671",
                    "lat": 34.710845,
                    "lon": 133.0592048,
                    "mergeKey": "osm:node:266919671",
                    "name": "梶田",
                    "nameEn": "Kajita",
                    "routeIds": [],
                    "sourceId": "osm:node:266919671"
                },
                {
                    "id": "osm:node:266919673",
                    "lat": 34.6948618,
                    "lon": 133.1175879,
                    "mergeKey": "osm:node:266919673",
                    "name": "上下",
                    "nameEn": "Joge",
                    "routeIds": [],
                    "sourceId": "osm:node:266919673"
                },
                {
                    "id": "osm:node:266920155",
                    "lat": 34.5826342,
                    "lon": 133.1932492,
                    "mergeKey": "osm:node:266920155",
                    "name": "中畑",
                    "nameEn": "Nakahata",
                    "routeIds": [],
                    "sourceId": "osm:node:266920155"
                },
                {
                    "id": "osm:node:266921295",
                    "lat": 35.5068911,
                    "lon": 133.2447123,
                    "mergeKey": "osm:node:266921295",
                    "name": "中浜",
                    "nameEn": "Nakahama",
                    "routeIds": [],
                    "sourceId": "osm:node:266921295"
                },
                {
                    "id": "osm:node:266921300",
                    "lat": 35.4348286,
                    "lon": 133.3363951,
                    "mergeKey": "osm:node:266921300",
                    "name": "富士見町",
                    "nameEn": "Fujimichō",
                    "routeIds": [],
                    "sourceId": "osm:node:266921300"
                },
                {
                    "id": "osm:node:266921378",
                    "lat": 35.4895238,
                    "lon": 133.2556718,
                    "mergeKey": "osm:node:266921378",
                    "name": "大篠津町",
                    "nameEn": "Ōshinozuchō",
                    "routeIds": [],
                    "sourceId": "osm:node:266921378"
                },
                {
                    "id": "osm:node:266921404",
                    "lat": 35.4670082,
                    "lon": 133.2883828,
                    "mergeKey": "osm:node:266921404",
                    "name": "弓ヶ浜",
                    "nameEn": "Yumigahama",
                    "routeIds": [],
                    "sourceId": "osm:node:266921404"
                },
                {
                    "id": "osm:node:266921426",
                    "lat": 35.4567486,
                    "lon": 133.3054878,
                    "mergeKey": "osm:node:266921426",
                    "name": "河崎口",
                    "nameEn": "Kawasakiguchi",
                    "routeIds": [],
                    "sourceId": "osm:node:266921426"
                },
                {
                    "id": "osm:node:266921485",
                    "lat": 35.5150417,
                    "lon": 133.2400617,
                    "mergeKey": "osm:node:266921485",
                    "name": "高松町",
                    "nameEn": "Takamatsuchō",
                    "routeIds": [],
                    "sourceId": "osm:node:266921485"
                },
                {
                    "id": "osm:node:266921487",
                    "lat": 35.4807071,
                    "lon": 133.2656653,
                    "mergeKey": "osm:node:266921487",
                    "name": "和田浜",
                    "nameEn": "Wadahama",
                    "routeIds": [],
                    "sourceId": "osm:node:266921487"
                },
                {
                    "id": "osm:node:266921489",
                    "lat": 35.5210938,
                    "lon": 133.2366182,
                    "mergeKey": "osm:node:266921489",
                    "name": "余子",
                    "nameEn": "Amariko",
                    "routeIds": [],
                    "sourceId": "osm:node:266921489"
                },
                {
                    "id": "osm:node:266921493",
                    "lat": 35.44626,
                    "lon": 133.3228353,
                    "mergeKey": "osm:node:266921493",
                    "name": "三本松口",
                    "nameEn": "Sambommatsuguchi",
                    "routeIds": [],
                    "sourceId": "osm:node:266921493"
                },
                {
                    "id": "osm:node:266921558",
                    "lat": 35.5385539,
                    "lon": 133.2264952,
                    "mergeKey": "osm:node:266921558",
                    "name": "馬場崎町",
                    "nameEn": "Babasakichō",
                    "routeIds": [],
                    "sourceId": "osm:node:266921558"
                },
                {
                    "id": "osm:node:266921574",
                    "lat": 35.5451501,
                    "lon": 133.2226806,
                    "mergeKey": "osm:node:266921574",
                    "name": "境港",
                    "nameEn": "Sakaiminato",
                    "routeIds": [],
                    "sourceId": "osm:node:266921574"
                },
                {
                    "id": "osm:node:267059422",
                    "lat": 35.3124649,
                    "lon": 134.1966116,
                    "mergeKey": "osm:node:267059422",
                    "name": "因幡社",
                    "nameEn": "Inaba-Yashiro",
                    "routeIds": [],
                    "sourceId": "osm:node:267059422"
                },
                {
                    "id": "osm:node:267059424",
                    "lat": 35.4612754,
                    "lon": 134.2486406,
                    "mergeKey": "osm:node:267059424",
                    "name": "津ノ井",
                    "nameEn": "Tsunoi",
                    "routeIds": [],
                    "sourceId": "osm:node:267059424"
                },
                {
                    "id": "osm:node:267059427",
                    "lat": 35.3542425,
                    "lon": 134.206226,
                    "mergeKey": "osm:node:267059427",
                    "name": "鷹狩",
                    "nameEn": "Takagari",
                    "routeIds": [],
                    "sourceId": "osm:node:267059427"
                },
                {
                    "id": "osm:node:267059656",
                    "lat": 35.2328134,
                    "lon": 134.2257895,
                    "mergeKey": "osm:node:267059656",
                    "name": "土師",
                    "nameEn": "Haji",
                    "routeIds": [],
                    "sourceId": "osm:node:267059656"
                },
                {
                    "id": "osm:node:267059657",
                    "lat": 35.3975949,
                    "lon": 134.2230178,
                    "mergeKey": "osm:node:267059657",
                    "name": "河原",
                    "nameEn": "Kawahara",
                    "routeIds": [],
                    "sourceId": "osm:node:267059657"
                },
                {
                    "id": "osm:node:267059727",
                    "lat": 35.3434833,
                    "lon": 134.2048976,
                    "mergeKey": "osm:node:267059727",
                    "name": "用瀬",
                    "nameEn": "Mochigase",
                    "routeIds": [],
                    "sourceId": "osm:node:267059727"
                },
                {
                    "id": "osm:node:267059821",
                    "lat": 35.2053071,
                    "lon": 134.1070101,
                    "mergeKey": "osm:node:267059821",
                    "name": "美作河井",
                    "nameEn": "Mimasaka-Kawai",
                    "routeIds": [],
                    "sourceId": "osm:node:267059821"
                },
                {
                    "id": "osm:node:267059830",
                    "lat": 35.1236569,
                    "lon": 134.0713819,
                    "mergeKey": "osm:node:267059830",
                    "name": "美作滝尾",
                    "nameEn": "Mimasaka-Takio",
                    "routeIds": [],
                    "sourceId": "osm:node:267059830"
                },
                {
                    "id": "osm:node:267059932",
                    "lat": 35.1694399,
                    "lon": 134.0622633,
                    "mergeKey": "osm:node:267059932",
                    "name": "美作加茂",
                    "nameEn": "Mimasaka-Kamo",
                    "routeIds": [],
                    "sourceId": "osm:node:267059932"
                },
                {
                    "id": "osm:node:267059958",
                    "lat": 35.428834,
                    "lon": 134.2600124,
                    "mergeKey": "osm:node:267059958",
                    "name": "東郡家",
                    "nameEn": "Higashi-Koge",
                    "routeIds": [],
                    "sourceId": "osm:node:267059958"
                },
                {
                    "id": "osm:node:267060087",
                    "lat": 35.2138216,
                    "lon": 134.2103877,
                    "mergeKey": "osm:node:267060087",
                    "name": "那岐",
                    "nameEn": "Nagi",
                    "routeIds": [],
                    "sourceId": "osm:node:267060087"
                },
                {
                    "id": "osm:node:267060565",
                    "lat": 35.141664,
                    "lon": 134.0780212,
                    "mergeKey": "osm:node:267060565",
                    "name": "三浦",
                    "nameEn": "Miura",
                    "routeIds": [],
                    "sourceId": "osm:node:267060565"
                },
                {
                    "id": "osm:node:267060736",
                    "lat": 35.3730124,
                    "lon": 134.217782,
                    "mergeKey": "osm:node:267060736",
                    "name": "国英",
                    "nameEn": "Kunifusa",
                    "routeIds": [],
                    "sourceId": "osm:node:267060736"
                },
                {
                    "id": "osm:node:267060750",
                    "lat": 35.1928538,
                    "lon": 134.077514,
                    "mergeKey": "osm:node:267060750",
                    "name": "知和",
                    "nameEn": "Chiwa",
                    "routeIds": [],
                    "sourceId": "osm:node:267060750"
                },
                {
                    "id": "osm:node:339080255",
                    "lat": 34.596785,
                    "lon": 133.5079931,
                    "mergeKey": "osm:node:339080255",
                    "name": "早雲の里荏原",
                    "nameEn": "Sounnosato-Ebara",
                    "routeIds": [],
                    "sourceId": "osm:node:339080255"
                },
                {
                    "id": "osm:node:339080347",
                    "lat": 34.5929244,
                    "lon": 133.4690962,
                    "mergeKey": "osm:node:339080347",
                    "name": "井原",
                    "nameEn": "Ibara",
                    "routeIds": [],
                    "sourceId": "osm:node:339080347"
                },
                {
                    "id": "osm:node:339080643",
                    "lat": 34.6164299,
                    "lon": 133.6195968,
                    "mergeKey": "osm:node:339080643",
                    "name": "三谷",
                    "nameEn": "Mitani",
                    "routeIds": [],
                    "sourceId": "osm:node:339080643"
                },