{
    "attribution": {
        "text": "See data/transit/NOTICE.md for attribution and license details."
    },
    "presets": [
        {
            "id": "osm-japan-tohoku-other",
            "label": "Other stations in japan-tohoku",
            "operator": "OpenStreetMap",
            "bbox": [139.5175571, 37.0132631, 141.958733, 41.4422046],
            "defaultColor": "#1f6f78",
            "routes": [],
            "stations": [
                {
                    "id": "osm:node:263068968",
                    "lat": 37.7057552,
                    "lon": 139.5344616,
                    "mergeKey": "osm:node:263068968",
                    "name": "日出谷",
                    "nameEn": "Hideya",
                    "routeIds": [],
                    "sourceId": "osm:node:263068968"
                },
                {
                    "id": "osm:node:263069586",
                    "lat": 37.6806479,
                    "lon": 139.5763931,
                    "mergeKey": "osm:node:263069586",
                    "name": "豊実",
                    "nameEn": "Toyomi",
                    "routeIds": [],
                    "sourceId": "osm:node:263069586"
                },
                {
                    "id": "osm:node:263071312",
                    "lat": 37.6173933,
                    "lon": 139.7228911,
                    "mergeKey": "osm:node:263071312",
                    "name": "荻野",
                    "nameEn": "Ogino",
                    "routeIds": [],
                    "sourceId": "osm:node:263071312"
                },
                {
                    "id": "osm:node:263071441",
                    "lat": 37.6333782,
                    "lon": 139.8768542,
                    "mergeKey": "osm:node:263071441",
                    "name": "会津豊川",
                    "nameEn": "Aizu-Toyokawa",
                    "routeIds": [],
                    "sourceId": "osm:node:263071441"
                },
                {
                    "id": "osm:node:263071444",
                    "lat": 37.6439547,
                    "lon": 139.8678239,
                    "mergeKey": "osm:node:263071444",
                    "name": "喜多方",
                    "nameEn": "Kitakata",
                    "routeIds": [],
                    "sourceId": "osm:node:263071444"
                },
                {
                    "id": "osm:node:263071561",
                    "lat": 37.6392341,
                    "lon": 139.7665818,
                    "mergeKey": "osm:node:263071561",
                    "name": "山都",
                    "nameEn": "Yamato",
                    "routeIds": [],
                    "sourceId": "osm:node:263071561"
                },
                {
                    "id": "osm:node:263072140",
                    "lat": 37.5545985,
                    "lon": 139.9119261,
                    "mergeKey": "osm:node:263072140",
                    "name": "堂島",
                    "nameEn": "Dojima",
                    "routeIds": [],
                    "sourceId": "osm:node:263072140"
                },
                {
                    "id": "osm:node:263072424",
                    "lat": 37.6160875,
                    "lon": 139.8810081,
                    "mergeKey": "osm:node:263072424",
                    "name": "姥堂",
                    "nameEn": "Ubado",
                    "routeIds": [],
                    "sourceId": "osm:node:263072424"
                },
                {
                    "id": "osm:node:263072479",
                    "lat": 37.5940511,
                    "lon": 139.8872138,
                    "mergeKey": "osm:node:263072479",
                    "name": "塩川",
                    "nameEn": "Shiokawa",
                    "routeIds": [],
                    "sourceId": "osm:node:263072479"
                },
                {
                    "id": "osm:node:263073117",
                    "lat": 37.6248328,
                    "lon": 139.63409,
                    "mergeKey": "osm:node:263073117",
                    "name": "上野尻",
                    "nameEn": "Kami-Nojiri",
                    "routeIds": [],
                    "sourceId": "osm:node:263073117"
                },
                {
                    "id": "osm:node:263074656",
                    "lat": 37.6670088,
                    "lon": 139.6030075,
                    "mergeKey": "osm:node:263074656",
                    "name": "徳沢",
                    "nameEn": "Tokusawa",
                    "routeIds": [],
                    "sourceId": "osm:node:263074656"
                },
                {
                    "id": "osm:node:263081540",
                    "lat": 37.5788054,
                    "lon": 139.8957431,
                    "mergeKey": "osm:node:263081540",
                    "name": "笈川",
                    "nameEn": "Oikawa",
                    "routeIds": [],
                    "sourceId": "osm:node:263081540"
                },
                {
                    "id": "osm:node:263081994",
                    "lat": 37.6088517,
                    "lon": 139.6913211,
                    "mergeKey": "osm:node:263081994",
                    "name": "尾登",
                    "nameEn": "Onobori",
                    "routeIds": [],
                    "sourceId": "osm:node:263081994"
                },
                {
                    "id": "osm:node:263083953",
                    "lat": 37.5910368,
                    "lon": 139.6442042,
                    "mergeKey": "osm:node:263083953",
                    "name": "野沢",
                    "nameEn": "Nozawa",
                    "routeIds": [],
                    "sourceId": "osm:node:263083953"
                },
                {
                    "id": "osm:node:263177498",
                    "lat": 40.5558946,
                    "lon": 140.5311758,
                    "mergeKey": "osm:node:263177498",
                    "name": "石川",
                    "nameEn": "Ishikawa",
                    "routeIds": [],
                    "sourceId": "osm:node:263177498"
                },
                {
                    "id": "osm:node:263177838",
                    "lat": 40.2711273,
                    "lon": 140.4486743,
                    "mergeKey": "osm:node:263177838",
                    "name": "早口",
                    "nameEn": "Hayaguchi",
                    "routeIds": [],
                    "sourceId": "osm:node:263177838"
                },
                {
                    "id": "osm:node:263178489",
                    "lat": 40.2510696,
                    "lon": 140.3979398,
                    "mergeKey": "osm:node:263178489",
                    "name": "糠沢",
                    "nameEn": "Nukazawa",
                    "routeIds": [],
                    "sourceId": "osm:node:263178489"
                },
                {
                    "id": "osm:node:263183406",
                    "lat": 40.2146688,
                    "lon": 140.3121546,
                    "mergeKey": "osm:node:263183406",
                    "name": "前山",
                    "nameEn": "Maeyama",
                    "routeIds": [],
                    "sourceId": "osm:node:263183406"
                },
                {
                    "id": "osm:node:263184425",
                    "lat": 39.8715013,
                    "lon": 140.0630709,
                    "mergeKey": "osm:node:263184425",
                    "name": "大久保",
                    "nameEn": "Okubo",
                    "routeIds": [],
                    "sourceId": "osm:node:263184425"
                },
                {
                    "id": "osm:node:263189158",
                    "lat": 39.7803025,
                    "lon": 140.0681525,
                    "mergeKey": "osm:node:263189158",
                    "name": "上飯島",
                    "nameEn": "Kami-Iijima",
                    "routeIds": [],
                    "sourceId": "osm:node:263189158"
                },
                {
                    "id": "osm:node:263189202",
                    "lat": 39.9962288,
                    "lon": 140.0774783,
                    "mergeKey": "osm:node:263189202",
                    "name": "鯉川",
                    "nameEn": "Koikawa",
                    "routeIds": [],
                    "sourceId": "osm:node:263189202"
                },
                {
                    "id": "osm:node:264225488",
                    "lat": 40.6861241,
                    "lon": 139.9704062,
                    "mergeKey": "osm:node:264225488",
                    "name": "追良瀬",
                    "nameEn": "Oirase",
                    "routeIds": [],
                    "sourceId": "osm:node:264225488"
                },
                {
                    "id": "osm:node:264225492",
                    "lat": 40.7597811,
                    "lon": 140.0340443,
                    "mergeKey": "osm:node:264225492",
                    "name": "大戸瀬",
                    "nameEn": "Ōdose",
                    "routeIds": [],
                    "sourceId": "osm:node:264225492"
                },
                {
                    "id": "osm:node:264225687",
                    "lat": 40.775478,
                    "lon": 140.2208595,
                    "mergeKey": "osm:node:264225687",
                    "name": "鰺ヶ沢",
                    "nameEn": "Ajigasawa",
                    "routeIds": [],
                    "sourceId": "osm:node:264225687"
                },
                {
                    "id": "osm:node:264225713",
                    "lat": 40.762164,
                    "lon": 140.162814,
                    "mergeKey": "osm:node:264225713",
                    "name": "陸奥赤石",
                    "nameEn": "Mutsu-Akaishi",
                    "routeIds": [],
                    "sourceId": "osm:node:264225713"
                },
                {
                    "id": "osm:node:264225728",
                    "lat": 40.6974388,
                    "lon": 140.4616109,
                    "mergeKey": "osm:node:264225728",
                    "name": "板柳",
                    "nameEn": "Itayanagi",
                    "routeIds": [],
                    "sourceId": "osm:node:264225728"
                },
                {
                    "id": "osm:node:264225883",
                    "lat": 40.6540867,
                    "lon": 140.4998012,
                    "mergeKey": "osm:node:264225883",
                    "name": "藤崎",
                    "nameEn": "Fujisaki",
                    "routeIds": [],
                    "sourceId": "osm:node:264225883"
                },
                {
                    "id": "osm:node:264225886",
                    "lat": 40.8089316,
                    "lon": 140.4480325,
                    "mergeKey": "osm:node:264225886",
                    "name": "五所川原",
                    "nameEn": "Goshogawara",
                    "routeIds": [],
                    "sourceId": "osm:node:264225886"
                },
                {
                    "id": "osm:node:264226240",
                    "lat": 40.7872729,
                    "lon": 140.364149,
                    "mergeKey": "osm:node:264226240",
                    "name": "中田",
                    "nameEn": "Nakata",
                    "routeIds": [],
                    "sourceId": "osm:node:264226240"
                },
                {
                    "id": "osm:node:264226244",
                    "lat": 40.7873575,
                    "lon": 140.2978654,
                    "mergeKey": "osm:node:264226244",
                    "name": "越水",
                    "nameEn": "Koshimizu",
                    "routeIds": [],
                    "sourceId": "osm:node:264226244"
                },
                {
                    "id": "osm:node:264226395",
                    "lat": 40.802565,
                    "lon": 140.388475,
                    "mergeKey": "osm:node:264226395",
                    "name": "木造",
                    "nameEn": "Kizukuri",
                    "routeIds": [],
                    "sourceId": "osm:node:264226395"
                },
                {
                    "id": "osm:node:264226424",
                    "lat": 40.7318298,
                    "lon": 139.9945608,
                    "mergeKey": "osm:node:264226424",
                    "name": "風合瀬",
                    "nameEn": "Kasose",
                    "routeIds": [],
                    "sourceId": "osm:node:264226424"
                },
                {
                    "id": "osm:node:264226488",
                    "lat": 40.7458106,
                    "lon": 140.0955488,
                    "mergeKey": "osm:node:264226488",
                    "name": "北金ヶ沢",
                    "nameEn": "Kita-Kanegasawa",
                    "routeIds": [],
                    "sourceId": "osm:node:264226488"
                },
                {
                    "id": "osm:node:264226665",
                    "lat": 40.7365993,
                    "lon": 140.4373796,
                    "mergeKey": "osm:node:264226665",
                    "name": "鶴泊",
                    "nameEn": "Tsurudomari",
                    "routeIds": [],
                    "sourceId": "osm:node:264226665"
                },
                {
                    "id": "osm:node:264226725",
                    "lat": 40.7679416,
                    "lon": 140.0551245,
                    "mergeKey": "osm:node:264226725",
                    "name": "千畳敷",
                    "nameEn": "Senjōjiki",
                    "routeIds": [],
                    "sourceId": "osm:node:264226725"
                },
                {
                    "id": "osm:node:264227159",
                    "lat": 40.6751643,
                    "lon": 140.4806331,
                    "mergeKey": "osm:node:264227159",
                    "name": "林崎",
                    "nameEn": "Hayashzaki",
                    "routeIds": [],
                    "sourceId": "osm:node:264227159"
                },
                {
                    "id": "osm:node:264227349",
                    "lat": 40.7817786,
                    "lon": 140.3384754,
                    "mergeKey": "osm:node:264227349",
                    "name": "陸奥森田",
                    "nameEn": "Mutsu-Morita",
                    "routeIds": [],
                    "sourceId": "osm:node:264227349"
                },
                {
                    "id": "osm:node:264227357",
                    "lat": 40.7411591,
                    "lon": 140.1250127,
                    "mergeKey": "osm:node:264227357",
                    "name": "陸奥柳田",
                    "nameEn": "Mutsu-Yanagita",
                    "routeIds": [],
                    "sourceId": "osm:node:264227357"
                },
                {
                    "id": "osm:node:264227359",
                    "lat": 40.7073745,
                    "lon": 139.9832248,
                    "mergeKey": "osm:node:264227359",
                    "name": "驫木",
                    "nameEn": "Todoroki",
                    "routeIds": [],
                    "sourceId": "osm:node:264227359"
                },
                {
                    "id": "osm:node:264227484",
                    "lat": 40.512981,
                    "lon": 139.9503412,
                    "mergeKey": "osm:node:264227484",
                    "name": "白神岳登山口",
                    "nameEn": "Shirakamidaketozanguchi",
                    "routeIds": [],
                    "sourceId": "osm:node:264227484"
                },
                {
                    "id": "osm:node:264227559",
                    "lat": 40.5515624,
                    "lon": 139.9422281,
                    "mergeKey": "osm:node:264227559",
                    "name": "十二湖",
                    "nameEn": "Jūniko",
                    "routeIds": [],
                    "sourceId": "osm:node:264227559"
                },
                {
                    "id": "osm:node:264227563",
                    "lat": 40.6082019,
                    "lon": 139.8645962,
                    "mergeKey": "osm:node:264227563",
                    "name": "艫作",
                    "nameEn": "Henashi",
                    "routeIds": [],
                    "sourceId": "osm:node:264227563"
                },
                {
                    "id": "osm:node:264227648",
                    "lat": 40.5933058,
                    "lon": 139.871245,
                    "mergeKey": "osm:node:264227648",
                    "name": "ウェスパ椿山",
                    "nameEn": "WeSPa-Tsubakiyama",
                    "routeIds": [],
                    "sourceId": "osm:node:264227648"
                },
                {
                    "id": "osm:node:264227652",
                    "lat": 40.270982,
                    "lon": 140.036791,
                    "mergeKey": "osm:node:264227652",
                    "name": "鳥形",
                    "nameEn": "Torigata",
                    "routeIds": [],
                    "sourceId": "osm:node:264227652"
                },
                {
                    "id": "osm:node:264227662",
                    "lat": 40.3802448,
                    "lon": 140.0019305,
                    "mergeKey": "osm:node:264227662",
                    "name": "滝ノ間",
                    "nameEn": "Takinoma",
                    "routeIds": [],
                    "sourceId": "osm:node:264227662"
                },
                {
                    "id": "osm:node:264227686",
                    "lat": 40.4924738,
                    "lon": 139.9501457,
                    "mergeKey": "osm:node:264227686",
                    "name": "大間越",
                    "nameEn": "Ōmagoshi",
                    "routeIds": [],
                    "sourceId": "osm:node:264227686"
                },
                {
                    "id": "osm:node:264227688",
                    "lat": 40.5347511,
                    "lon": 139.946761,
                    "mergeKey": "osm:node:264227688",
                    "name": "松神",
                    "nameEn": "Matsukami",
                    "routeIds": [],
                    "sourceId": "osm:node:264227688"
                },
                {
                    "id": "osm:node:264227789",
                    "lat": 40.6300899,
                    "lon": 139.8913309,
                    "mergeKey": "osm:node:264227789",
                    "name": "横磯",
                    "nameEn": "Yokoiso",
                    "routeIds": [],
                    "sourceId": "osm:node:264227789"
                },
                {
                    "id": "osm:node:264227791",
                    "lat": 40.586154,
                    "lon": 139.8954495,
                    "mergeKey": "osm:node:264227791",
                    "name": "陸奥沢辺",
                    "nameEn": "Mutsu-Sawabe",
                    "routeIds": [],
                    "sourceId": "osm:node:264227791"
                },
                {
                    "id": "osm:node:264227900",
                    "lat": 40.2965565,
                    "lon": 140.0377814,
                    "mergeKey": "osm:node:264227900",
                    "name": "沢目",
                    "nameEn": "Sawame",
                    "routeIds": [],
                    "sourceId": "osm:node:264227900"
                },
                {
                    "id": "osm:node:264228069",
                    "lat": 40.5831185,
                    "lon": 139.9244996,
                    "mergeKey": "osm:node:264228069",
                    "name": "陸奥岩崎",
                    "nameEn": "Mutsu-Iwasaki",
                    "routeIds": [],
                    "sourceId": "osm:node:264228069"
                },
                {
                    "id": "osm:node:264228118",
                    "lat": 40.40601,
                    "lon": 139.966707,
                    "mergeKey": "osm:node:264228118",
                    "name": "岩館",
                    "nameEn": "Iwadate",
                    "routeIds": [],
                    "sourceId": "osm:node:264228118"
                },
                {
                    "id": "osm:node:264228312",
                    "lat": 40.2541585,
                    "lon": 140.0337522,
                    "mergeKey": "osm:node:264228312",
                    "name": "北能代",
                    "nameEn": "Kita-Noshiro",
                    "routeIds": [],
                    "sourceId": "osm:node:264228312"
                },
                {
                    "id": "osm:node:264228531",
                    "lat": 40.3316572,
                    "lon": 140.0325541,
                    "mergeKey": "osm:node:264228531",
                    "name": "東八森",
                    "nameEn": "Higashi-Hachimori",
                    "routeIds": [],
                    "sourceId": "osm:node:264228531"
                },
                {
                    "id": "osm:node:264228872",
                    "lat": 40.2257476,
                    "lon": 140.0392284,
                    "mergeKey": "osm:node:264228872",
                    "name": "向能代",
                    "nameEn": "Mukai-Noshiro",
                    "routeIds": [],
                    "sourceId": "osm:node:264228872"
                },
                {
                    "id": "osm:node:264229035",
                    "lat": 40.2069658,
                    "lon": 140.0330202,
                    "mergeKey": "osm:node:264229035",
                    "name": "能代",
                    "nameEn": "Noshiro",
                    "routeIds": [],
                    "sourceId": "osm:node:264229035"
                },
                {
                    "id": "osm:node:264229972",
                    "lat": 39.8689681,
                    "lon": 140.0040946,
                    "mergeKey": "osm:node:264229972",
                    "name": "上二田",
                    "nameEn": "Kami-Futada",
                    "routeIds": [],
                    "sourceId": "osm:node:264229972"
                },
                {
                    "id": "osm:node:264230356",
                    "lat": 39.9152272,
                    "lon": 139.9028431,
                    "mergeKey": "osm:node:264230356",
                    "name": "脇本",
                    "nameEn": "Wakimoto",
                    "routeIds": [],
                    "sourceId": "osm:node:264230356"
                },
                {
                    "id": "osm:node:264230483",
                    "lat": 39.8988205,
                    "lon": 139.9636176,
                    "mergeKey": "osm:node:264230483",
                    "name": "天王",
                    "nameEn": "Tennō",
                    "routeIds": [],
                    "sourceId": "osm:node:264230483"
                },
                {
                    "id": "osm:node:264230602",
                    "lat": 39.844411,
                    "lon": 140.0244751,
                    "mergeKey": "osm:node:264230602",
                    "name": "出戸浜",
                    "nameEn": "Detohama",
                    "routeIds": [],
                    "sourceId": "osm:node:264230602"
                },
                {
                    "id": "osm:node:264230604",
                    "lat": 39.9048836,
                    "lon": 139.8622639,
                    "mergeKey": "osm:node:264230604",
                    "name": "羽立",
                    "nameEn": "Hadachi",
                    "routeIds": [],
                    "sourceId": "osm:node:264230604"
                },
                {
                    "id": "osm:node:264230666",
                    "lat": 39.9048425,
                    "lon": 139.9469657,
                    "mergeKey": "osm:node:264230666",
                    "name": "船越",
                    "nameEn": "Funakoshi",
                    "routeIds": [],
                    "sourceId": "osm:node:264230666"
                },
                {
                    "id": "osm:node:264231211",
                    "lat": 39.5686158,
                    "lon": 140.5580018,
                    "mergeKey": "osm:node:264231211",
                    "name": "鶯野",
                    "routeIds": [],
                    "sourceId": "osm:node:264231211"
                },
                {
                    "id": "osm:node:264231227",
                    "lat": 39.5459206,
                    "lon": 140.5407569,
                    "mergeKey": "osm:node:264231227",
                    "name": "羽後長野",
                    "nameEn": "Ugo-Nagano",
                    "routeIds": [],
                    "sourceId": "osm:node:264231227"
                },
                {
                    "id": "osm:node:264231244",
                    "lat": 39.4895423,
                    "lon": 140.4981067,
                    "mergeKey": "osm:node:264231244",
                    "name": "北大曲",
                    "nameEn": "Kita-Omagari",
                    "routeIds": [],
                    "sourceId": "osm:node:264231244"
                },
                {
                    "id": "osm:node:264231287",
                    "lat": 39.6934072,
                    "lon": 140.9439562,
                    "mergeKey": "osm:node:264231287",
                    "name": "春木場",
                    "nameEn": "Harukiba",
                    "routeIds": [],
                    "sourceId": "osm:node:264231287"
                },
                {
                    "id": "osm:node:264231693",
                    "lat": 39.6323145,
                    "lon": 141.9123209,
                    "mergeKey": "osm:node:264231693",
                    "name": "千徳",
                    "nameEn": "Sentoku",
                    "routeIds": [],
                    "sourceId": "osm:node:264231693"
                },
                {
                    "id": "osm:node:264231873",
                    "lat": 39.6517598,
                    "lon": 141.351454,
                    "mergeKey": "osm:node:264231873",
                    "name": "区界",
                    "nameEn": "Kuzakai",
                    "routeIds": [],
                    "sourceId": "osm:node:264231873"
                },
                {
                    "id": "osm:node:264233451",
                    "lat": 39.640706,
                    "lon": 141.5977644,
                    "mergeKey": "osm:node:264233451",
                    "name": "川内",
                    "nameEn": "Kawauchi",
                    "routeIds": [],
                    "sourceId": "osm:node:264233451"
                },
                {
                    "id": "osm:node:264233470",
                    "lat": 39.6296697,
                    "lon": 141.8388039,
                    "mergeKey": "osm:node:264233470",
                    "name": "蟇目",
                    "nameEn": "Hikime",
                    "routeIds": [],
                    "sourceId": "osm:node:264233470"
                },
                {
                    "id": "osm:node:264233895",
                    "lat": 39.6850376,
                    "lon": 140.9064553,
                    "mergeKey": "osm:node:264233895",
                    "name": "赤渕",
                    "nameEn": "Akabuchi",
                    "routeIds": [],
                    "sourceId": "osm:node:264233895"
                },
                {
                    "id": "osm:node:264233946",
                    "lat": 39.6305018,
                    "lon": 141.8613492,
                    "mergeKey": "osm:node:264233946",
                    "name": "花原市",
                    "nameEn": "Kebaraichi",
                    "routeIds": [],
                    "sourceId": "osm:node:264233946"
                },
                {
                    "id": "osm:node:264234230",
                    "lat": 39.5190492,
                    "lon": 140.5275442,
                    "mergeKey": "osm:node:264234230",
                    "name": "鑓見内",
                    "nameEn": "Yariminai",
                    "routeIds": [],
                    "sourceId": "osm:node:264234230"
                },
                {
                    "id": "osm:node:264234552",
                    "lat": 39.6227936,
                    "lon": 140.6277733,
                    "mergeKey": "osm:node:264234552",
                    "name": "神代",
                    "nameEn": "Jindai",
                    "routeIds": [],
                    "sourceId": "osm:node:264234552"
                },
                {
                    "id": "osm:node:264234558",
                    "lat": 39.6691713,
                    "lon": 140.6926002,
                    "mergeKey": "osm:node:264234558",
                    "name": "刺巻",
                    "nameEn": "Sashimaki",
                    "routeIds": [],
                    "sourceId": "osm:node:264234558"
                },
                {
                    "id": "osm:node:264234639",
                    "lat": 39.6357249,
                    "lon": 141.4376987,
                    "mergeKey": "osm:node:264234639",
                    "name": "松草",
                    "nameEn": "Matsukusa",
                    "routeIds": [],
                    "sourceId": "osm:node:264234639"
                },
                {
                    "id": "osm:node:264235043",
                    "lat": 39.6045202,
                    "lon": 141.7677045,
                    "mergeKey": "osm:node:264235043",
                    "name": "腹帯",
                    "nameEn": "Haratai",
                    "routeIds": [],
                    "sourceId": "osm:node:264235043"
                },
                {
                    "id": "osm:node:264235479",
                    "lat": 39.5972217,
                    "lon": 141.6813108,
                    "mergeKey": "osm:node:264235479",
                    "name": "陸中川井",
                    "nameEn": "Rikuchu-Kawai",
                    "routeIds": [],
                    "sourceId": "osm:node:264235479"
                },
                {
                    "id": "osm:node:264235800",
                    "lat": 39.6173956,
                    "lon": 141.6255534,
                    "mergeKey": "osm:node:264235800",
                    "name": "箱石",
                    "nameEn": "Hakoishi",
                    "routeIds": [],
                    "sourceId": "osm:node:264235800"
                },
                {
                    "id": "osm:node:264239387",
                    "lat": 39.6235214,
                    "lon": 141.5118007,
                    "mergeKey": "osm:node:264239387",
                    "name": "平津戸",
                    "nameEn": "Hiratsuto",
                    "routeIds": [],
                    "sourceId": "osm:node:264239387"
                },
                {
                    "id": "osm:node:264254043",
                    "lat": 39.2507071,
                    "lon": 141.7604816,
                    "mergeKey": "osm:node:264254043",
                    "name": "洞泉",
                    "nameEn": "Dosen",
                    "routeIds": [],
                    "sourceId": "osm:node:264254043"
                },
                {
                    "id": "osm:node:264256216",
                    "lat": 39.2763263,
                    "lon": 140.699651,
                    "mergeKey": "osm:node:264256216",
                    "name": "黒沢",
                    "nameEn": "Kurosawa",
                    "routeIds": [],
                    "sourceId": "osm:node:264256216"
                },
                {
                    "id": "osm:node:264256438",
                    "lat": 39.2935264,
                    "lon": 140.6464807,
                    "mergeKey": "osm:node:264256438",
                    "name": "小松川",
                    "nameEn": "Komatsukawa",
                    "routeIds": [],
                    "sourceId": "osm:node:264256438"
                },
                {
                    "id": "osm:node:264256562",
                    "lat": 39.3077084,
                    "lon": 140.9976417,
                    "mergeKey": "osm:node:264256562",
                    "name": "立川目",
                    "nameEn": "Tatekawame",
                    "routeIds": [],
                    "sourceId": "osm:node:264256562"
                },
                {
                    "id": "osm:node:264256598",
                    "lat": 39.3010205,
                    "lon": 141.040073,
                    "mergeKey": "osm:node:264256598",
                    "name": "藤根",
                    "nameEn": "Fujine",
                    "routeIds": [],
                    "sourceId": "osm:node:264256598"
                },
                {
                    "id": "osm:node:264257161",
                    "lat": 39.295263,
                    "lon": 140.8356048,
                    "mergeKey": "osm:node:264257161",
                    "name": "ゆだ錦秋湖",
                    "routeIds": [],
                    "sourceId": "osm:node:264257161"
                },
                {
                    "id": "osm:node:264257261",
                    "lat": 39.3008533,
                    "lon": 140.7367001,
                    "mergeKey": "osm:node:264257261",
                    "name": "ゆだ高原",
                    "nameEn": "Yuda-Kōgen",
                    "routeIds": [],
                    "sourceId": "osm:node:264257261"
                },
                {
                    "id": "osm:node:264257398",
                    "lat": 39.3011127,
                    "lon": 140.9318093,
                    "mergeKey": "osm:node:264257398",
                    "name": "岩沢",
                    "nameEn": "Iwasawa",
                    "routeIds": [],
                    "sourceId": "osm:node:264257398"
                },
                {
                    "id": "osm:node:264257461",
                    "lat": 39.2780858,
                    "lon": 140.6187106,
                    "mergeKey": "osm:node:264257461",
                    "name": "相野々",
                    "nameEn": "Ainono",
                    "routeIds": [],
                    "sourceId": "osm:node:264257461"
                },
                {
                    "id": "osm:node:264257504",
                    "lat": 39.30844,
                    "lon": 140.909233,
                    "mergeKey": "osm:node:264257504",
                    "name": "和賀仙人",
                    "nameEn": "Wakasennin",
                    "routeIds": [],
                    "sourceId": "osm:node:264257504"
                },
                {
                    "id": "osm:node:264257695",
                    "lat": 39.31485,
                    "lon": 140.7760961,
                    "mergeKey": "osm:node:264257695",
                    "name": "ほっとゆだ",
                    "nameEn": "Hottoyuda",
                    "routeIds": [],
                    "sourceId": "osm:node:264257695"
                },
                {
                    "id": "osm:node:264262727",
                    "lat": 38.4903993,
                    "lon": 139.5175571,
                    "mergeKey": "osm:node:264262727",
                    "name": "勝木",
                    "nameEn": "Gatsugi",
                    "routeIds": [],
                    "sourceId": "osm:node:264262727"
                },
                {
                    "id": "osm:node:264264196",
                    "lat": 38.5140857,
                    "lon": 139.5311433,
                    "mergeKey": "osm:node:264264196",
                    "name": "府屋",
                    "nameEn": "Fuya",
                    "routeIds": [],
                    "sourceId": "osm:node:264264196"
                },
                {
                    "id": "osm:node:264265148",
                    "lat": 38.947444,
                    "lon": 141.2450701,
                    "mergeKey": "osm:node:264265148",
                    "name": "岩ノ下",
                    "nameEn": "Iwanoshita",
                    "routeIds": [],
                    "sourceId": "osm:node:264265148"
                },
                {
                    "id": "osm:node:264265150",
                    "lat": 38.9395086,
                    "lon": 141.4523978,
                    "mergeKey": "osm:node:264265150",
                    "name": "折壁",
                    "nameEn": "Orikabe",
                    "routeIds": [],
                    "sourceId": "osm:node:264265150"
                },
                {
                    "id": "osm:node:264265153",
                    "lat": 38.9959683,
                    "lon": 141.3214278,
                    "mergeKey": "osm:node:264265153",
                    "name": "摺沢",
                    "nameEn": "Surisawa",
                    "routeIds": [],
                    "sourceId": "osm:node:264265153"
                },
                {
                    "id": "osm:node:264265353",
                    "lat": 38.924595,
                    "lon": 141.3457671,
                    "mergeKey": "osm:node:264265353",
                    "name": "千厩",
                    "nameEn": "Senmaya",
                    "routeIds": [],
                    "sourceId": "osm:node:264265353"
                },
                {
                    "id": "osm:node:264265945",
                    "lat": 38.9170742,
                    "lon": 141.2512569,
                    "mergeKey": "osm:node:264265945",
                    "name": "陸中門崎",
                    "nameEn": "Rikuchu-Kanzaki",
                    "routeIds": [],
                    "sourceId": "osm:node:264265945"
                },
                {
                    "id": "osm:node:264266939",
                    "lat": 38.9763985,
                    "lon": 141.2375962,
                    "mergeKey": "osm:node:264266939",
                    "name": "陸中松川",
                    "nameEn": "Rikuchu-Matsukawa",
                    "routeIds": [],
                    "sourceId": "osm:node:264266939"
                },
                {
                    "id": "osm:node:264266941",
                    "lat": 38.915438,
                    "lon": 141.489317,
                    "mergeKey": "osm:node:264266941",
                    "name": "新月",
                    "nameEn": "Niitsuki",
                    "routeIds": [],
                    "sourceId": "osm:node:264266941"
                },
                {
                    "id": "osm:node:264268636",
                    "lat": 38.9352621,
                    "lon": 141.429451,
                    "mergeKey": "osm:node:264268636",
                    "name": "矢越",
                    "nameEn": "Yagoshi",
                    "routeIds": [],
                    "sourceId": "osm:node:264268636"
                },
                {
                    "id": "osm:node:264269176",
                    "lat": 38.9968015,
                    "lon": 141.2724368,
                    "mergeKey": "osm:node:264269176",
                    "name": "柴宿",
                    "nameEn": "Shibajyuku",
                    "routeIds": [],
                    "sourceId": "osm:node:264269176"
                },
                {
                    "id": "osm:node:264269517",
                    "lat": 38.9325448,
                    "lon": 141.3844211,
                    "mergeKey": "osm:node:264269517",
                    "name": "小梨",
                    "nameEn": "Konashi",
                    "routeIds": [],
                    "sourceId": "osm:node:264269517"
                },
                {
                    "id": "osm:node:264269846",
                    "lat": 38.9084404,
                    "lon": 141.1779262,
                    "mergeKey": "osm:node:264269846",
                    "name": "真滝",
                    "nameEn": "Mataki",
                    "routeIds": [],
                    "sourceId": "osm:node:264269846"
                },
                {
                    "id": "osm:node:264400765",
                    "lat": 38.6059529,
                    "lon": 140.897232,
                    "mergeKey": "osm:node:264400765",
                    "name": "東大崎",
                    "nameEn": "Higashi-Osaki",
                    "routeIds": [],
                    "sourceId": "osm:node:264400765"
                },
                {
                    "id": "osm:node:264402338",
                    "lat": 38.7934544,
                    "lon": 139.9773788,
                    "mergeKey": "osm:node:264402338",
                    "name": "狩川",
                    "nameEn": "Karikawa",
                    "routeIds": [],
                    "sourceId": "osm:node:264402338"
                },
                {
                    "id": "osm:node:264402472",
                    "lat": 38.8180991,
                    "lon": 139.9450573,
                    "mergeKey": "osm:node:264402472",
                    "name": "南野",
                    "nameEn": "Minamino",
                    "routeIds": [],
                    "sourceId": "osm:node:264402472"
                },
                {
                    "id": "osm:node:264402482",
                    "lat": 38.7371616,
                    "lon": 140.1453493,
                    "mergeKey": "osm:node:264402482",
                    "name": "古口",
                    "nameEn": "Furukuchi",
                    "routeIds": [],
                    "sourceId": "osm:node:264402482"
                },
                {
                    "id": "osm:node:264402581",
                    "lat": 38.7373047,
                    "lon": 140.1860921,
                    "mergeKey": "osm:node:264402581",
                    "name": "津谷",
                    "nameEn": "Tsuya",
                    "routeIds": [],
                    "sourceId": "osm:node:264402581"
                },
                {
                    "id": "osm:node:264402590",
                    "lat": 38.7527396,
                    "lon": 140.0706497,
                    "mergeKey": "osm:node:264402590",
                    "name": "高屋",
                    "nameEn": "Takaya",
                    "routeIds": [],
                    "sourceId": "osm:node:264402590"
                },
                {
                    "id": "osm:node:264402593",
                    "lat": 38.7515272,
                    "lon": 140.2439332,
                    "mergeKey": "osm:node:264402593",
                    "name": "升形",
                    "nameEn": "Masukata",
                    "routeIds": [],
                    "sourceId": "osm:node:264402593"
                },
                {
                    "id": "osm:node:264402684",
                    "lat": 38.7476752,
                    "lon": 140.209197,
                    "mergeKey": "osm:node:264402684",
                    "name": "羽前前波",
                    "nameEn": "Uzen-Zennami",
                    "routeIds": [],
                    "sourceId": "osm:node:264402684"
                },
                {
                    "id": "osm:node:264402724",
                    "lat": 38.7901968,
                    "lon": 140.0207611,
                    "mergeKey": "osm:node:264402724",
                    "name": "清川",
                    "nameEn": "Kiyokawa",
                    "routeIds": [],
                    "sourceId": "osm:node:264402724"
                },
                {
                    "id": "osm:node:264458184",
                    "lat": 40.2853003,
                    "lon": 141.2910403,
                    "mergeKey": "osm:node:264458184",
                    "name": "斗米",
                    "nameEn": "Tomai",
                    "routeIds": [],
                    "sourceId": "osm:node:264458184"
                },
                {
                    "id": "osm:node:264458270",
                    "lat": 40.323397,
                    "lon": 141.3037952,
                    "mergeKey": "osm:node:264458270",
                    "name": "金田一温泉",
                    "nameEn": "Kintaichi-Onsen",
                    "routeIds": [],
                    "sourceId": "osm:node:264458270"
                },
                {
                    "id": "osm:node:264458414",
                    "lat": 40.0045952,
                    "lon": 141.2373084,
                    "mergeKey": "osm:node:264458414",
                    "name": "御堂",
                    "nameEn": "Mido",
                    "routeIds": [],
                    "sourceId": "osm:node:264458414"
                },
                {
                    "id": "osm:node:264458521",
                    "lat": 40.0657832,
                    "lon": 141.228548,
                    "mergeKey": "osm:node:264458521",
                    "name": "奥中山高原",
                    "nameEn": "Okunakayama-Kogen",
                    "routeIds": [],
                    "sourceId": "osm:node:264458521"
                },
                {
                    "id": "osm:node:264458527",
                    "lat": 40.1235849,
                    "lon": 141.2607146,
                    "mergeKey": "osm:node:264458527",
                    "name": "小繋",
                    "nameEn": "Kotsunagi",
                    "routeIds": [],
                    "sourceId": "osm:node:264458527"
                },
                {
                    "id": "osm:node:264458997",
                    "lat": 40.2103856,
                    "lon": 141.297461,
                    "mergeKey": "osm:node:264458997",
                    "name": "一戸",
                    "nameEn": "Ichinohe",
                    "routeIds": [],
                    "sourceId": "osm:node:264458997"
                },
                {
                    "id": "osm:node:264877435",
                    "lat": 40.9396439,
                    "lon": 140.4373349,
                    "mergeKey": "osm:node:264877435",
                    "name": "大沢内",
                    "nameEn": "Ōzawanai",
                    "routeIds": [],
                    "sourceId": "osm:node:264877435"
                },
                {
                    "id": "osm:node:264877466",
                    "lat": 40.951035,
                    "lon": 140.4409287,
                    "mergeKey": "osm:node:264877466",
                    "name": "深郷田",
                    "nameEn": "Fukōda",
                    "routeIds": [],
                    "sourceId": "osm:node:264877466"
                },
                {
                    "id": "osm:node:264877467",
                    "lat": 40.925997,
                    "lon": 140.443775,
                    "mergeKey": "osm:node:264877467",
                    "name": "川倉",
                    "nameEn": "Kawakura",
                    "routeIds": [],
                    "sourceId": "osm:node:264877467"
                },
                {
                    "id": "osm:node:264877488",
                    "lat": 40.9646016,
                    "lon": 140.4410935,
                    "mergeKey": "osm:node:264877488",
                    "name": "津軽中里",
                    "nameEn": "Tsugaru-Nakasato",
                    "routeIds": [],
                    "sourceId": "osm:node:264877488"
                },
                {
                    "id": "osm:node:264877504",
                    "lat": 40.8579612,
                    "lon": 140.4777669,
                    "mergeKey": "osm:node:264877504",
                    "name": "毘沙門",
                    "nameEn": "Bishamon",
                    "routeIds": [],
                    "sourceId": "osm:node:264877504"
                },
                {
                    "id": "osm:node:264877518",
                    "lat": 40.817456,
                    "lon": 140.4566692,
                    "mergeKey": "osm:node:264877518",
                    "name": "十川",
                    "nameEn": "Togawa",
                    "routeIds": [],
                    "sourceId": "osm:node:264877518"
                },
                {
                    "id": "osm:node:264877531",
                    "lat": 40.829504,
                    "lon": 140.479389,
                    "mergeKey": "osm:node:264877531",
                    "name": "津軽飯詰",
                    "nameEn": "Tsugaru-Iizume",
                    "routeIds": [],
                    "sourceId": "osm:node:264877531"
                },
                {
                    "id": "osm:node:264877533",
                    "lat": 40.9123303,
                    "lon": 140.4513781,
                    "mergeKey": "osm:node:264877533",
                    "name": "芦野公園",
                    "nameEn": "Ashino-Kōen",
                    "routeIds": [],
                    "sourceId": "osm:node:264877533"
                },
                {
                    "id": "osm:node:264877568",
                    "lat": 40.8813162,
                    "lon": 140.4691368,
                    "mergeKey": "osm:node:264877568",
                    "name": "嘉瀬",
                    "nameEn": "Kase",
                    "routeIds": [],
                    "sourceId": "osm:node:264877568"
                },
                {
                    "id": "osm:node:294052572",
                    "lat": 37.1252161,
                    "lon": 139.9795008,
                    "mergeKey": "osm:node:294052572",
                    "name": "那須ロープウェイ山麓",
                    "nameEn": "Nasusanroku",
                    "routeIds": [],
                    "sourceId": "osm:node:294052572"
                },
                {
                    "id": "osm:node:294052573",
                    "lat": 37.1243019,
                    "lon": 139.9707511,
                    "mergeKey": "osm:node:294052573",
                    "name": "那須ロープウェイ山頂",
                    "nameEn": "Nasusancho",
                    "routeIds": [],
                    "sourceId": "osm:node:294052573"
                },
                {
                    "id": "osm:node:962950579",
                    "lat": 39.2317528,
                    "lon": 140.8875427,
                    "mergeKey": "osm:node:962950579",
                    "name": "ゴンドラ乗降場",
                    "routeIds": [],
                    "sourceId": "osm:node:962950579"
                },
                {
                    "id": "osm:node:1842264396",
                    "lat": 40.3866983,
                    "lon": 139.9875353,
                    "mergeKey": "osm:node:1842264396",
                    "name": "あきた白神",
                    "nameEn": "Akitashirakami",
                    "routeIds": [],
                    "sourceId": "osm:node:1842264396"
                },
                {
                    "id": "osm:node:2031470770",
                    "lat": 38.1708327,
                    "lon": 140.4161169,
                    "mergeKey": "osm:node:2031470770",
                    "name": "中央高原駅",
                    "routeIds": [],
                    "sourceId": "osm:node:2031470770"
                },
                {
                    "id": "osm:node:2031470773",
                    "lat": 38.1708606,
                    "lon": 140.3980666,
                    "mergeKey": "osm:node:2031470773",
                    "name": "上の台駅",
                    "routeIds": [],
                    "sourceId": "osm:node:2031470773"
                },
                {
                    "id": "osm:node:2388548335",
                    "lat": 41.256716,
                    "lon": 140.347691,
                    "mergeKey": "osm:node:2388548335",
                    "name": "体験坑道",
                    "nameEn": "Experience Tunnel",
                    "routeIds": [],
                    "sourceId": "osm:node:2388548335"
                },
                {
                    "id": "osm:node:2494792852",
                    "lat": 37.4497209,
                    "lon": 139.9141233,
                    "mergeKey": "osm:node:2494792852",
                    "name": "一ノ堰六地蔵尊",
                    "routeIds": [],
                    "sourceId": "osm:node:2494792852"
                },
                {
                    "id": "osm:node:2729956033",
                    "lat": 38.909879,
                    "lon": 141.5592196,
                    "mergeKey": "osm:node:2729956033",
                    "name": "気仙沼",
                    "nameEn": "Kesennuma",
                    "routeIds": [],
                    "sourceId": "osm:node:2729956033"
                },
                {
                    "id": "osm:node:2980294648",
                    "lat": 39.0189168,
                    "lon": 141.6623446,
                    "mergeKey": "osm:node:2980294648",
                    "name": "高田病院",
                    "routeIds": [],
                    "sourceId": "osm:node:2980294648"
                },
                {
                    "id": "osm:node:3152528744",
                    "lat": 38.1516617,
                    "lon": 140.410741,
                    "mergeKey": "osm:node:3152528744",
                    "name": "樹氷高原駅",
                    "routeIds": [],
                    "sourceId": "osm:node:3152528744"
                },
                {
                    "id": "osm:node:3152528745",
                    "lat": 38.1547326,
                    "lon": 140.4311795,
                    "mergeKey": "osm:node:3152528745",
                    "name": "地蔵山頂駅",
                    "routeIds": [],
                    "sourceId": "osm:node:3152528745"
                },
                {
                    "id": "osm:node:3152528756",
                    "lat": 38.1615968,
                    "lon": 140.3952612,
                    "mergeKey": "osm:node:3152528756",
                    "name": "蔵王山麓駅",
                    "routeIds": [],
                    "sourceId": "osm:node:3152528756"
                },
                {
                    "id": "osm:node:3702582421",
                    "lat": 38.1304552,
                    "lon": 140.4432277,
                    "mergeKey": "osm:node:3702582421",
                    "name": "リフト上",
                    "routeIds": [],
                    "sourceId": "osm:node:3702582421"
                },
                {
                    "id": "osm:node:3702582422",
                    "lat": 38.1282639,
                    "lon": 140.4388885,
                    "mergeKey": "osm:node:3702582422",
                    "name": "リフト下",
                    "routeIds": [],
                    "sourceId": "osm:node:3702582422"
                },
                {
                    "id": "osm:node:3746971968",
                    "lat": 40.218041,
                    "lon": 140.1723074,
                    "mergeKey": "osm:node:3746971968",
                    "name": "富根",
                    "nameEn": "Tomine",
                    "routeIds": [],
                    "sourceId": "osm:node:3746971968"
                },
                {
                    "id": "osm:node:3838451239",
                    "lat": 38.9887792,
                    "lon": 141.2532381,
                    "mergeKey": "osm:node:3838451239",
                    "name": "猊鼻渓",
                    "nameEn": "Geibikei",
                    "routeIds": [],
                    "sourceId": "osm:node:3838451239"
                },
                {
                    "id": "osm:node:3906277088",
                    "lat": 41.0383689,
                    "lon": 140.6425216,
                    "mergeKey": "osm:node:3906277088",
                    "name": "蟹田",
                    "nameEn": "Kanita",
                    "routeIds": [],
                    "sourceId": "osm:node:3906277088"
                },
                {
                    "id": "osm:node:4292383752",
                    "lat": 39.8427055,
                    "lon": 141.958733,
                    "mergeKey": "osm:node:4292383752",
                    "name": "小本駅",
                    "routeIds": [],
                    "sourceId": "osm:node:4292383752"
                },
                {
                    "id": "osm:node:4404106250",
                    "lat": 39.8814272,
                    "lon": 139.9871459,
                    "mergeKey": "osm:node:4404106250",
                    "name": "二田",
                    "nameEn": "Futada",
                    "routeIds": [],
                    "sourceId": "osm:node:4404106250"
                },
                {
                    "id": "osm:node:4593922689",
                    "lat": 38.2407451,
                    "lon": 140.9216029,
                    "mergeKey": "osm:node:4593922689",
                    "name": "仙台市営バス霞目車庫",
                    "routeIds": [],
                    "sourceId": "osm:node:4593922689"
                },
                {
                    "id": "osm:node:4704648089",
                    "lat": 39.242418,
                    "lon": 140.893679,
                    "mergeKey": "osm:node:4704648089",
                    "name": "クワッドリフト",
                    "routeIds": [],
                    "sourceId": "osm:node:4704648089"
                },
                {
                    "id": "osm:node:4704653795",
                    "lat": 39.238696,
                    "lon": 140.890207,
                    "mergeKey": "osm:node:4704653795",
                    "name": "第2ゴンドラ",
                    "routeIds": [],
                    "sourceId": "osm:node:4704653795"
                },
                {
                    "id": "osm:node:4704694123",
                    "lat": 39.236121,
                    "lon": 140.904871,
                    "mergeKey": "osm:node:4704694123",
                    "name": "第1ペアリフト",
                    "routeIds": [],
                    "sourceId": "osm:node:4704694123"
                },
                {
                    "id": "osm:node:4834507619",
                    "lat": 39.6120115,
                    "lon": 140.6009184,
                    "mergeKey": "osm:node:4834507619",
                    "name": "生田",
                    "nameEn": "Shoden",
                    "routeIds": [],
                    "sourceId": "osm:node:4834507619"
                },
                {
                    "id": "osm:node:4837881280",
                    "lat": 40.170871,
                    "lon": 141.3077808,
                    "mergeKey": "osm:node:4837881280",
                    "name": "小鳥谷",
                    "nameEn": "Kozuya",
                    "routeIds": [],
                    "sourceId": "osm:node:4837881280"
                },
                {
                    "id": "osm:node:4837893135",
                    "lat": 39.29839,
                    "lon": 141.0758365,
                    "mergeKey": "osm:node:4837893135",
                    "name": "江釣子",
                    "nameEn": "Ezuriko",
                    "routeIds": [],
                    "sourceId": "osm:node:4837893135"
                },
                {
                    "id": "osm:node:5142568736",
                    "lat": 37.9094063,
                    "lon": 140.1238633,
                    "mergeKey": "osm:node:5142568736",
                    "name": "山交バス 米沢営業所",
                    "nameEn": "Yamako Bus Yonezawa Office",
                    "routeIds": [],
                    "sourceId": "osm:node:5142568736"
                },
                {
                    "id": "osm:node:5783615451",
                    "lat": 39.6206297,
                    "lon": 141.7990032,
                    "mergeKey": "osm:node:5783615451",
                    "name": "茂市",
                    "nameEn": "Moichi",
                    "routeIds": [],
                    "sourceId": "osm:node:5783615451"
                },
                {
                    "id": "osm:node:5850325373",
                    "lat": 40.5214764,
                    "lon": 141.5029733,
                    "mergeKey": "osm:node:5850325373",
                    "name": "八戸ラピアバスターミナル",
                    "routeIds": [],
                    "sourceId": "osm:node:5850325373"
                },
                {
                    "id": "osm:node:5969480592",
                    "lat": 38.319642,
                    "lon": 141.0296218,
                    "mergeKey": "osm:node:5969480592",
                    "name": "マリンゲート塩釜",
                    "nameEn": "Marine Gate Shiogama",
                    "routeIds": [],
                    "sourceId": "osm:node:5969480592"
                },
                {
                    "id": "osm:node:5969491231",
                    "lat": 38.3688177,
                    "lon": 141.063224,
                    "mergeKey": "osm:node:5969491231",
                    "name": "Matsushima Ferry",
                    "routeIds": [],
                    "sourceId": "osm:node:5969491231"
                },
                {
                    "id": "osm:node:6031697462",
                    "lat": 40.370987,
                    "lon": 140.0181367,
                    "mergeKey": "osm:node:6031697462",
                    "name": "八森",
                    "nameEn": "Hachimori",
                    "routeIds": [],
                    "sourceId": "osm:node:6031697462"
                },
                {
                    "id": "osm:node:6110900862",
                    "lat": 40.5158944,
                    "lon": 140.6031226,
                    "mergeKey": "osm:node:6110900862",
                    "name": "長峰",
                    "nameEn": "Nagamine",
                    "routeIds": [],
                    "sourceId": "osm:node:6110900862"
                },
                {
                    "id": "osm:node:6111096462",
                    "lat": 40.3384424,
                    "lon": 140.5919123,
                    "mergeKey": "osm:node:6111096462",
                    "name": "白沢",
                    "nameEn": "Shirasawa",
                    "routeIds": [],
                    "sourceId": "osm:node:6111096462"
                },
                {
                    "id": "osm:node:6111097330",
                    "lat": 40.2766005,
                    "lon": 140.4977128,
                    "mergeKey": "osm:node:6111097330",
                    "name": "下川沿",
                    "nameEn": "Shimokawazoi",
                    "routeIds": [],
                    "sourceId": "osm:node:6111097330"
                },
                {
                    "id": "osm:node:6111888835",
                    "lat": 39.711558,
                    "lon": 141.0720532,
                    "mergeKey": "osm:node:6111888835",
                    "name": "大釜",
                    "nameEn": "Okama",
                    "routeIds": [],
                    "sourceId": "osm:node:6111888835"
                },
                {
                    "id": "osm:node:6119242306",
                    "lat": 39.7098774,
                    "lon": 141.0248423,
                    "mergeKey": "osm:node:6119242306",
                    "name": "小岩井",
                    "nameEn": "Koiwai",
                    "routeIds": [],
                    "sourceId": "osm:node:6119242306"
                },
                {
                    "id": "osm:node:6138569835",
                    "lat": 39.2684794,
                    "lon": 140.1149243,
                    "mergeKey": "osm:node:6138569835",
                    "name": "吉沢",
                    "nameEn": "Yoshizawa",
                    "routeIds": [],
                    "sourceId": "osm:node:6138569835"
                },
                {
                    "id": "osm:node:6138569838",
                    "lat": 39.3126313,
                    "lon": 140.1127812,
                    "mergeKey": "osm:node:6138569838",
                    "name": "前郷",
                    "nameEn": "Maego",
                    "routeIds": [],
                    "sourceId": "osm:node:6138569838"
                },
                {
                    "id": "osm:node:6138569855",
                    "lat": 39.3507352,
                    "lon": 140.0597357,
                    "mergeKey": "osm:node:6138569855",
                    "name": "子吉",
                    "nameEn": "Koyoshi",
                    "routeIds": [],
                    "sourceId": "osm:node:6138569855"
                },
                {
                    "id": "osm:node:6209385475",
                    "lat": 40.4995065,
                    "lon": 141.4815163,
                    "mergeKey": "osm:node:6209385475",
                    "name": "大杉平バスセンター",
                    "routeIds": [],
                    "sourceId": "osm:node:6209385475"
                },
                {
                    "id": "osm:node:6209413816",
                    "lat": 40.5114504,
                    "lon": 141.4245675,
                    "mergeKey": "osm:node:6209413816",
                    "name": "西高校前",
                    "routeIds": [],
                    "sourceId": "osm:node:6209413816"
                },
                {
                    "id": "osm:node:6212108508",
                    "lat": 40.5223444,
                    "lon": 141.5061134,
                    "mergeKey": "osm:node:6212108508",
                    "name": "ラピアバスセンター",
                    "routeIds": [],
                    "sourceId": "osm:node:6212108508"
                },
                {
                    "id": "osm:node:6215324772",
                    "lat": 40.4979881,
                    "lon": 141.5354953,
                    "mergeKey": "osm:node:6215324772",
                    "name": "旭ヶ丘団地",
                    "routeIds": [],
                    "sourceId": "osm:node:6215324772"
                },
                {
                    "id": "osm:node:6215519495",
                    "lat": 40.4697698,
                    "lon": 141.4973639,
                    "mergeKey": "osm:node:6215519495",
                    "name": "是川団地",
                    "routeIds": [],
                    "sourceId": "osm:node:6215519495"
                },
                {
                    "id": "osm:node:6217832129",
                    "lat": 40.5028486,
                    "lon": 141.5637002,
                    "mergeKey": "osm:node:6217832129",
                    "name": "平庭",
                    "routeIds": [],
                    "sourceId": "osm:node:6217832129"
                },
                {
                    "id": "osm:node:6359218497",
                    "lat": 40.8271097,
                    "lon": 140.7485093,
                    "mergeKey": "osm:node:6359218497",
                    "name": "県立郷土館前(ねぶたん号)バス停",
                    "routeIds": [],
                    "sourceId": "osm:node:6359218497"
                },
                {
                    "id": "osm:node:6639766834",
                    "lat": 37.7843106,
                    "lon": 140.8996801,
                    "mergeKey": "osm:node:6639766834",
                    "name": "相馬市バスターミナル",
                    "routeIds": [],
                    "sourceId": "osm:node:6639766834"
                },
                {
                    "id": "osm:node:6731853697",
                    "lat": 38.246334,
                    "lon": 140.3314224,
                    "mergeKey": "osm:node:6731853697",
                    "name": "山交ビルバスターミナル",
                    "routeIds": [],
                    "sourceId": "osm:node:6731853697"
                },
                {
                    "id": "osm:node:6778335232",
                    "lat": 39.8847498,
                    "lon": 139.848687,
                    "mergeKey": "osm:node:6778335232",
                    "name": "男鹿",
                    "nameEn": "Oga",
                    "routeIds": [],
                    "sourceId": "osm:node:6778335232"
                },
                {
                    "id": "osm:node:6818636690",
                    "lat": 38.2300422,
                    "lon": 140.8076447,
                    "mergeKey": "osm:node:6818636690",
                    "name": "仙台営業所 山田自由ヶ丘車庫",
                    "nameEn": "Miyagi Kōtsū",
                    "routeIds": [],
                    "sourceId": "osm:node:6818636690"
                },
                {
                    "id": "osm:node:6935972289",
                    "lat": 40.044375,
                    "lon": 140.0826372,
                    "mergeKey": "osm:node:6935972289",
                    "name": "鹿渡",
                    "nameEn": "Kado",
                    "routeIds": [],
                    "sourceId": "osm:node:6935972289"
                },
                {
                    "id": "osm:node:6936938065",
                    "lat": 40.1414674,
                    "lon": 140.0636405,
                    "mergeKey": "osm:node:6936938065",
                    "name": "北金岡",
                    "nameEn": "Kita-Kanaoka",
                    "routeIds": [],
                    "sourceId": "osm:node:6936938065"
                },
                {
                    "id": "osm:node:6939085523",
                    "lat": 39.7585058,
                    "lon": 140.0737444,
                    "mergeKey": "osm:node:6939085523",
                    "name": "土崎",
                    "nameEn": "Tsuchizaki",
                    "routeIds": [],
                    "sourceId": "osm:node:6939085523"
                },
                {
                    "id": "osm:node:7212837262",
                    "lat": 39.7556097,
                    "lon": 140.0609539,
                    "mergeKey": "osm:node:7212837262",
                    "name": "秋田港",
                    "routeIds": [],
                    "sourceId": "osm:node:7212837262"
                },
                {
                    "id": "osm:node:7218567202",
                    "lat": 39.5017238,
                    "lon": 140.5120897,
                    "mergeKey": "osm:node:7218567202",
                    "name": "羽後四ツ屋",
                    "nameEn": "Ugo-Yotsuya",
                    "routeIds": [],
                    "sourceId": "osm:node:7218567202"
                },
                {
                    "id": "osm:node:7230873746",
                    "lat": 39.6811235,
                    "lon": 140.3929755,
                    "mergeKey": "osm:node:7230873746",
                    "name": "大仙市営 協和スキー場",
                    "routeIds": [],
                    "sourceId": "osm:node:7230873746"
                },
                {
                    "id": "osm:node:7590709270",
                    "lat": 38.4289715,
                    "lon": 141.308712,
                    "mergeKey": "osm:node:7590709270",
                    "name": "網地島ライン中央発着所",
                    "nameEn": "Ajishima Line Chuo",
                    "routeIds": [],
                    "sourceId": "osm:node:7590709270"
                },
                {
                    "id": "osm:node:7878469683",
                    "lat": 37.6611632,
                    "lon": 140.9224039,
                    "mergeKey": "osm:node:7878469683",
                    "name": "南相馬バスターミナル",
                    "routeIds": [],
                    "sourceId": "osm:node:7878469683"
                },
                {
                    "id": "osm:node:8120213658",
                    "lat": 40.7579873,
                    "lon": 140.4354121,
                    "mergeKey": "osm:node:8120213658",
                    "name": "陸奥鶴田",
                    "nameEn": "Mutsu-Tsuruda",
                    "routeIds": [],
                    "sourceId": "osm:node:8120213658"
                },
                {
                    "id": "osm:node:8175507511",
                    "lat": 37.1242296,
                    "lon": 140.175803,
                    "mergeKey": "osm:node:8175507511",
                    "name": "西郷BS",
                    "routeIds": [],
                    "sourceId": "osm:node:8175507511"
                },
                {
                    "id": "osm:node:8178808692",
                    "lat": 37.1881101,
                    "lon": 140.2921917,
                    "mergeKey": "osm:node:8178808692",
                    "name": "矢吹泉崎BS",
                    "routeIds": [],
                    "sourceId": "osm:node:8178808692"
                },
                {
                    "id": "osm:node:8186550896",
                    "lat": 38.515206,
                    "lon": 140.930356,
                    "mergeKey": "osm:node:8186550896",
                    "name": "三本木",
                    "nameEn": "Sanbongi PA",
                    "routeIds": [],
                    "sourceId": "osm:node:8186550896"
                },
                {
                    "id": "osm:node:8226600217",
                    "lat": 38.4381457,
                    "lon": 140.8861948,
                    "mergeKey": "osm:node:8226600217",
                    "name": "大和町バスターミナル",
                    "nameEn": "Taiwacho Bus Terminal",
                    "routeIds": [],
                    "sourceId": "osm:node:8226600217"
                },
                {
                    "id": "osm:node:8490963870",
                    "lat": 39.2945921,
                    "lon": 141.1117438,
                    "mergeKey": "osm:node:8490963870",
                    "name": "柳原",
                    "nameEn": "Yanagihara",
                    "routeIds": [],
                    "sourceId": "osm:node:8490963870"
                },
                {
                    "id": "osm:node:8512383562",
                    "lat": 39.7383429,
                    "lon": 140.1121732,
                    "mergeKey": "osm:node:8512383562",
                    "name": "泉外旭川",
                    "nameEn": "Izumi-Sotoasahikawa",
                    "routeIds": [],
                    "sourceId": "osm:node:8512383562"
                },
                {
                    "id": "osm:node:8549548463",
                    "lat": 40.3516361,
                    "lon": 141.2894931,
                    "mergeKey": "osm:node:8549548463",
                    "name": "目時",
                    "nameEn": "Metoki",
                    "routeIds": [],
                    "sourceId": "osm:node:8549548463"
                },
                {
                    "id": "osm:node:8552999916",
                    "lat": 39.8993918,
                    "lon": 140.0732937,
                    "mergeKey": "osm:node:8552999916",
                    "name": "羽後飯塚",
                    "nameEn": "Ugo-Izuka",
                    "routeIds": [],
                    "sourceId": "osm:node:8552999916"
                },
                {
                    "id": "osm:node:8553017642",
                    "lat": 39.9116805,
                    "lon": 140.0758365,
                    "mergeKey": "osm:node:8553017642",
                    "name": "井川さくら",
                    "nameEn": "Ikawa-Sakura",
                    "routeIds": [],
                    "sourceId": "osm:node:8553017642"
                },
                {
                    "id": "osm:node:8556047793",
                    "lat": 41.1796735,
                    "lon": 140.4905047,
                    "mergeKey": "osm:node:8556047793",
                    "name": "今別",
                    "nameEn": "Imabetsu",
                    "routeIds": [],
                    "sourceId": "osm:node:8556047793"
                },
                {
                    "id": "osm:node:8556047794",
                    "lat": 41.1806243,
                    "lon": 140.4716366,
                    "mergeKey": "osm:node:8556047794",
                    "name": "津軽浜名",
                    "nameEn": "Tsugaru-Hamana",
                    "routeIds": [],
                    "sourceId": "osm:node:8556047794"
                },
                {
                    "id": "osm:node:8558472727",
                    "lat": 41.0657912,
                    "lon": 140.5594227,
                    "mergeKey": "osm:node:8558472727",
                    "name": "大平",
                    "nameEn": "Ōdai",
                    "routeIds": [],
                    "sourceId": "osm:node:8558472727"
                },
                {
                    "id": "osm:node:8649165716",
                    "lat": 40.3991088,
                    "lon": 140.6075603,
                    "mergeKey": "osm:node:8649165716",
                    "name": "陣場",
                    "nameEn": "Jinba",
                    "routeIds": [],
                    "sourceId": "osm:node:8649165716"
                },
                {
                    "id": "osm:node:8649219868",
                    "lat": 40.441701,
                    "lon": 140.6324042,
                    "mergeKey": "osm:node:8649219868",
                    "name": "津軽湯の沢",
                    "nameEn": "Tsugaru-Yunosawa",
                    "routeIds": [],
                    "sourceId": "osm:node:8649219868"
                },
                {
                    "id": "osm:node:8651010528",
                    "lat": 39.8098882,
                    "lon": 140.0578985,
                    "mergeKey": "osm:node:8651010528",
                    "name": "追分",
                    "nameEn": "Oiwake",
                    "routeIds": [],
                    "sourceId": "osm:node:8651010528"
                },
                {
                    "id": "osm:node:8651845117",
                    "lat": 40.2039214,
                    "lon": 140.1185118,
                    "mergeKey": "osm:node:8651845117",
                    "name": "鶴形",
                    "nameEn": "Tsurugata",
                    "routeIds": [],
                    "sourceId": "osm:node:8651845117"
                },
                {
                    "id": "osm:node:8663670921",
                    "lat": 38.9602586,
                    "lon": 141.5668496,
                    "mergeKey": "osm:node:8663670921",
                    "name": "上鹿折",
                    "nameEn": "Kami-Shishiori",
                    "routeIds": [],
                    "sourceId": "osm:node:8663670921"
                },
                {
                    "id": "osm:node:8756931218",
                    "lat": 38.275321,
                    "lon": 140.7141274,
                    "mergeKey": "osm:node:8756931218",
                    "name": "仙台市営バス 白沢出張所",
                    "routeIds": [],
                    "sourceId": "osm:node:8756931218"
                },
                {
                    "id": "osm:node:8889117062",
                    "lat": 39.240394,
                    "lon": 140.9035058,
                    "mergeKey": "osm:node:8889117062",
                    "name": "クワッドリフト",
                    "routeIds": [],
                    "sourceId": "osm:node:8889117062"
                },
                {
                    "id": "osm:node:8895963086",
                    "lat": 38.4426529,
                    "lon": 141.447546,
                    "mergeKey": "osm:node:8895963086",
                    "name": "離島航路ターミナル",
                    "routeIds": [],
                    "sourceId": "osm:node:8895963086"
                },
                {
                    "id": "osm:node:9122714690",
                    "lat": 40.6504406,
                    "lon": 139.9294496,
                    "mergeKey": "osm:node:9122714690",
                    "name": "深浦",
                    "nameEn": "Fukaura",
                    "routeIds": [],
                    "sourceId": "osm:node:9122714690"
                },
                {
                    "id": "osm:node:9177926128",
                    "lat": 40.7821403,
                    "lon": 140.2674247,
                    "mergeKey": "osm:node:9177926128",
                    "name": "鳴沢",
                    "nameEn": "Narusawa",
                    "routeIds": [],
                    "sourceId": "osm:node:9177926128"
                },
                {
                    "id": "osm:node:9561831167",
                    "lat": 40.8212196,
                    "lon": 140.4786852,
                    "mergeKey": "osm:node:9561831167",
                    "name": ":五農校前",
                    "nameEn": "Gonoko-mae",
                    "routeIds": [],
                    "sourceId": "osm:node:9561831167"
                },
                {
                    "id": "osm:node:9818579462",
                    "lat": 40.9031521,
                    "lon": 140.4598913,
                    "mergeKey": "osm:node:9818579462",
                    "name": "金木",
                    "nameEn": "Kanagi",
                    "routeIds": [],
                    "sourceId": "osm:node:9818579462"
                },
                {
                    "id": "osm:node:10292460280",
                    "lat": 40.2160678,
                    "lon": 140.0167156,
                    "mergeKey": "osm:node:10292460280",
                    "name": "能代営業所 Noshiro Eigyosho",
                    "routeIds": [],
                    "sourceId": "osm:node:10292460280"
                },
                {
                    "id": "osm:node:10292460284",
                    "lat": 40.2134617,
                    "lon": 140.0303692,
                    "mergeKey": "osm:node:10292460284",
                    "name": "能代バスステーション Noshiro Bus Station",
                    "routeIds": [],
                    "sourceId": "osm:node:10292460284"
                },
                {
                    "id": "osm:node:10742638637",
                    "lat": 39.7129346,
                    "lon": 141.1008483,
                    "mergeKey": "osm:node:10742638637",
                    "name": "前潟",
                    "nameEn": "Maegata",
                    "routeIds": [],
                    "sourceId": "osm:node:10742638637"
                },
                {
                    "id": "osm:node:13349031758",
                    "lat": 38.1496784,
                    "lon": 140.2652256,
                    "mergeKey": "osm:node:13349031758",
                    "name": "山交バス(株) 上山営業所",
                    "nameEn": "Yamako Bus Kaminoyama Office",
                    "routeIds": [],
                    "sourceId": "osm:node:13349031758"
                },
                {
                    "id": "osm:node:13349049203",
                    "lat": 37.9099427,
                    "lon": 140.1234816,
                    "mergeKey": "osm:node:13349049203",
                    "name": "山交バス米沢営業所",
                    "nameEn": "Yamako Yonezawa Bus Terminal",
                    "routeIds": [],
                    "sourceId": "osm:node:13349049203"
                },
                {
                    "id": "osm:node:13898474173",
                    "lat": 41.2569328,
                    "lon": 140.3480463,
                    "mergeKey": "osm:node:13898474173",
                    "name": "竜飛定点",
                    "routeIds": [],
                    "sourceId": "osm:node:13898474173"
                },
                {
                    "id": "osm:node:13898474174",
                    "lat": 41.4422046,
                    "lon": 140.2394631,
                    "mergeKey": "osm:node:13898474174",
                    "name": "吉岡定点",
                    "routeIds": [],
                    "sourceId": "osm:node:13898474174"
                },
                {
                    "id": "osm:node:13898474174",
                    "lat": 41.4422046,
                    "lon": 140.2394631,
                    "mergeKey": "osm:node:13898474174",
                    "name": "吉岡定点",
                    "routeIds": [],
                    "sourceId": "osm:node:13898474174"
                },
                {
                    "id": "osm:node:263242985",
                    "lat": 37.913718,
                    "lon": 140.686133,
                    "mergeKey": "osm:node:263242985",
                    "name": "あぶくま",
                    "nameEn": "Abukuma",
                    "routeIds": [],
                    "sourceId": "osm:node:263242985",
                    "operator": "阿武隈急行線"
                },
                {
                    "id": "osm:node:2520641930",
                    "lat": 40.5553637,
                    "lon": 141.4837672,
                    "mergeKey": "osm:node:2520641930",
                    "name": "北沼",
                    "nameEn": "Kitanuma",
                    "routeIds": [],
                    "sourceId": "osm:node:2520641930",
                    "operator": "八戸臨海鉄道"
                },
                {
                    "id": "osm:node:4830429653",
                    "lat": 41.402265,
                    "lon": 141.163671,
                    "mergeKey": "osm:node:4830429653",
                    "name": "下北交通 大畑出張所",
                    "routeIds": [],
                    "sourceId": "osm:node:4830429653",
                    "operator": "下北交通"
                },
                {
                    "id": "osm:node:4830429653",
                    "lat": 41.402265,
                    "lon": 141.163671,
                    "mergeKey": "osm:node:4830429653",
                    "name": "下北交通 大畑出張所",
                    "routeIds": [],
                    "sourceId": "osm:node:4830429653",
                    "operator": "下北交通"
                },
                {
                    "id": "osm:node:5051577248",
                    "lat": 37.0132631,
                    "lon": 140.9180329,
                    "mergeKey": "osm:node:5051577248",
                    "name": "ラパークいわき",
                    "routeIds": [],
                    "sourceId": "osm:node:5051577248",
                    "operator": "新常磐交通"
                },
                {
                    "id": "osm:node:5478278681",
                    "lat": 41.1447712,
                    "lon": 140.8267211,
                    "mergeKey": "osm:node:5478278681",
                    "name": "脇野沢港フェリーターミナル",
                    "nameEn": "Wanikosawa Ferry Terminal",
                    "routeIds": [],
                    "sourceId": "osm:node:5478278681",
                    "operator": "むつ湾フェリー株式会社"
                },
                {
                    "id": "osm:node:5478278682",
                    "lat": 41.0492005,
                    "lon": 140.6466261,
                    "mergeKey": "osm:node:5478278682",
                    "name": "蟹田港フェリーターミナル",
                    "nameEn": "Kanita Ferry Terminal",
                    "routeIds": [],
                    "sourceId": "osm:node:5478278682",
                    "operator": "むつ湾フェリー株式会社"
                },
                {
                    "id": "osm:node:6126052403",
                    "lat": 38.0477732,
                    "lon": 140.1489173,
                    "mergeKey": "osm:node:6126052403",
                    "name": "赤湯",
                    "nameEn": "Akayu",
                    "routeIds": [],
                    "sourceId": "osm:node:6126052403",
                    "operator": "山形鉄道株式会社"
                },
                {
                    "id": "osm:node:6212108511",
                    "lat": 40.5247185,
                    "lon": 141.5135012,
                    "mergeKey": "osm:node:6212108511",
                    "name": "八戸営業所",
                    "routeIds": [],
                    "sourceId": "osm:node:6212108511",
                    "operator": "十和田観光電鉄"
                },
                {
                    "id": "osm:node:6549784706",
                    "lat": 37.3695415,
                    "lon": 140.3762576,
                    "mergeKey": "osm:node:6549784706",
                    "name": "郡山貨物ターミナル",
                    "routeIds": [],
                    "sourceId": "osm:node:6549784706",
                    "operator": "日本貨物鉄道株式会社"
                },
                {
                    "id": "osm:node:7028747955",
                    "lat": 40.5197226,
                    "lon": 141.4444846,
                    "mergeKey": "osm:node:7028747955",
                    "name": "八戸貨物",
                    "routeIds": [],
                    "sourceId": "osm:node:7028747955",
                    "operator": "JR貨物"
                },
                {
                    "id": "osm:node:8425745669",
                    "lat": 39.7151596,
                    "lon": 140.1091377,
                    "mergeKey": "osm:node:8425745669",
                    "name": "長崎屋バスターミナル",
                    "routeIds": [],
                    "sourceId": "osm:node:8425745669",
                    "operator": "秋田中央交通"
                },
                {
                    "id": "osm:node:10731859284",
                    "lat": 38.3367413,
                    "lon": 141.0910053,
                    "mergeKey": "osm:node:10731859284",
                    "name": "桂島",
                    "routeIds": [],
                    "sourceId": "osm:node:10731859284",
                    "operator": "塩竈市営汽船"
                },
                {
                    "id": "osm:node:10731859285",
                    "lat": 38.3331568,
                    "lon": 141.1027099,
                    "mergeKey": "osm:node:10731859285",
                    "name": "石浜",
                    "routeIds": [],
                    "sourceId": "osm:node:10731859285",
                    "operator": "塩竈市営汽船"
                }
            ],
            "source": { "kind": "osm", "namespace": "openstreetmap" },
            "kind": "coverage"
        },
        {
            "id": "osm-japan-tohoku-jr-east",
            "label": "JR East",
            "operator": "JR East",
            "bbox": [139.5181639, 36.9047863, 141.8724537, 41.1854265],
            "defaultColor": "#1f6f78",
            "routes": [
                {
                    "id": "osm:relation:332866",
                    "name": "JR中央線",
                    "color": "#888888",
                    "sourceId": "332866",
                    "geometry": {
                        "type": "MultiLineString",
                        "coordinates": [
                            [
                                [139.766706, 35.6812546],
                                [139.7680596, 35.6797924],
                                [139.7649584, 35.6820173],
                                [139.7709112, 35.6917939],
                                [139.7649486, 35.6996103],
                                [139.7656264, 35.6972185],
                                [139.7299237, 35.6849915],
                                [139.699177, 35.6886028],
                                [139.665633, 35.7058302],
                                [139.6638991, 35.7070378],
                                [139.6499648, 35.7055421],
                                [139.6354724, 35.7048403],
                                [139.6201587, 35.7044803],
                                [139.5996053, 35.7037331],
                                [139.5803077, 35.7031413],
                                [139.560901, 35.7027148],
                                [139.5440803, 35.7021298],
                                [139.5240561, 35.7015414],
                                [139.5067873, 35.7011261],
                                [139.4803582, 35.7001003],
                                [139.4805116, 35.7015843],
                                [139.4660825, 35.6997484],
                                [139.4681511, 35.6993952],
                                [139.4465312, 35.6992413],
                                [139.4124953, 35.6994167],
                                [139.4135508, 35.6979822],
                                [139.4126, 35.6961465],
                                [139.3938458, 35.679389],
                                [139.3814849, 35.6595146],
                                [139.3394669, 35.655389],
                                [139.3124161, 35.6565227],
                                [139.2816337, 35.64166],
                                [139.2811639, 35.6421221],
                                [139.2838084, 35.6417108],
                                [139.1884919, 35.6173978],
                                [139.1524443, 35.6158851],
                                [139.1160455, 35.6188935],
                                [139.0731591, 35.6141608],
                                [139.0376821, 35.606018],
                                [139.0031178, 35.60815],
                                [138.9680239, 35.6128739],
                                [138.942183, 35.6129342],
                                [138.8843295, 35.5942257],
                                [138.8253537, 35.6039397],
                                [138.7810054, 35.6395719],
                                [138.7432213, 35.6723574],
                                [138.7344393, 35.7051349],
                                [138.7341835, 35.7054703],
                                [138.7027841, 35.6941802],
                                [138.6830069, 35.6849247],
                                [138.6590816, 35.673473],
                                [138.6353509, 35.657604],
                                [138.5693937, 35.6670815],
                                [138.5195034, 35.6688016],
                                [138.5211792, 35.6683595],
                                [138.4874941, 35.6878479],
                                [138.4508872, 35.7104219],
                                [138.4332556, 35.7371514],
                                [138.414278, 35.7511531],
                                [138.39477, 35.790032],
                                [138.3667944, 35.8275272],
                                [138.3159619, 35.8639177],
                                [138.2758202, 35.8847391],
                                [138.2384268, 35.9120403],
                                [138.211947, 35.9303274],
                                [138.197806, 35.9423707],
                                [138.1523145, 35.994339],
                                [138.1162602, 36.0466419],
                                [138.0848582, 36.0720188],
                                [138.0447578, 36.056577],
                                [137.9477924, 36.1143838],
                                [138.5992422, 35.6596417],
                                [139.7696216, 35.6816961]
                            ]
                        ]
                    }
                },
                {
                    "id": "osm:relation:1139468",
                    "name": "JR山手線",
                    "color": "#B1CB39",
                    "sourceId": "1139468",
                    "geometry": {
                        "type": "MultiLineString",
                        "coordinates": [
                            [
                                [139.7380078, 35.6280038],
                                [139.7400659, 35.6286457],
                                [139.7284866, 35.6193903],
                                [139.7236303, 35.6262562],
                                [139.7157717, 35.6325078],
                                [139.7086461, 35.6469738],
                                [139.7017647, 35.65808],
                                [139.6986396, 35.658258],
                                [139.7043604, 35.6689704],
                                [139.7024266, 35.6702145],
                                [139.7020806, 35.6839514],
                                [139.698857, 35.6837073],
                                [139.699177, 35.6886028],
                                [139.7002421, 35.7013007],
                                [139.6973178, 35.7007776],
                                [139.7038744, 35.7126401],
                                [139.7064645, 35.7211919],
                                [139.7110372, 35.7280917],
                                [139.7285879, 35.7316851],
                                [139.7394273, 35.7334119],
                                [139.7472412, 35.7365848],
                                [139.761707, 35.7373723],
                                [139.7666684, 35.7322021],
                                [139.7709817, 35.7283798],
                                [139.7713571, 35.727424],
                                [139.7705696, 35.7285041],
                                [139.7779166, 35.7217035],
                                [139.7765418, 35.7134128],
                                [139.7746303, 35.7069531],
                                [139.7761952, 35.7064914],
                                [139.7732996, 35.7079766],
                                [139.7729909, 35.7078328],
                                [139.7743023, 35.6988302],
                                [139.7709112, 35.6917939],
                                [139.766706, 35.6812546],
                                [139.7680596, 35.6797924],
                                [139.7696216, 35.6816961],
                                [139.7649584, 35.6820173],
                                [139.7630483, 35.6749598],
                                [139.7637189, 35.6730368],
                                [139.760332, 35.6744172],
                                [139.7631029, 35.6728411],
                                [139.7598936, 35.6653482],
                                [139.7547098, 35.6569261],
                                [139.7570622, 35.6551111],
                                [139.7567283, 35.6554012],
                                [139.7476833, 35.6457358],
                                [139.7483983, 35.6476619],
                                [139.7406642, 35.635399]
                            ]
                        ]
                    }
                },